poi_type_id,amenity_id,lat,lon,name,amenity,category,geometry,index_right,ID_UC_G0,GC_CNT_GAD_2025,GC_UCN_MAI_2025,GC_POP_TOT_2025,GC_UCA_KM2_2025,UC_NM_CTR,x_proj,y_proj,node_ids,cluster
10.0,CUSTOM,51.4441989,5.4731122,"Salveo Pharma B.V., Medical Warehouse",pharmacy,health_wellbeing,POINT (671863.1825939144 5702124.73246535),2564,2627,Netherlands,Eindhoven,293437.7853,98,"Eindhoven, Netherlands",671863.1825939144,5702124.73246535,11829067224,31
20.0,N36723712,51.4478102,5.4875047,"Bibliotheek TU/e,",library,community_space,POINT (672849.5750159111 5702560.144058454),2564,2627,Netherlands,Eindhoven,293437.7853,98,"Eindhoven, Netherlands",672849.5750159111,5702560.144058454,9999910010,31
64.0,N31493215,51.4828462,5.4508617,"Artoislaan,",platform,mobility,POINT (670173.276539401 5706369.940279562),2564,2627,Netherlands,Eindhoven,293437.7853,98,"Eindhoven, Netherlands",670173.276539401,5706369.940279562,42751474,15
64.0,N32575094,51.4905761,5.4516006,"Castiliëlaan,",platform,mobility,POINT (670195.7806227308 5707231.148162291),2564,2627,Netherlands,Eindhoven,293437.7853,98,"Eindhoven, Netherlands",670195.7806227308,5707231.148162291,5504169717,15
23.0,N34043800,51.4394403,5.4779225,"KFC,",fast_food,food_choices,POINT (672215.3217306978 5701606.927946193),2564,2627,Netherlands,Eindhoven,293437.7853,98,"Eindhoven, Netherlands",672215.3217306978,5701606.927946193,42628429,1
84.0,N34044459,51.423354,5.4628062,"Albert Heijn,",supermarket,food_choices,POINT (671225.0335866797 5699782.868025824),2564,2627,Netherlands,Eindhoven,293437.7853,98,"Eindhoven, Netherlands",671225.0335866797,5699782.868025824,42589552,25
84.0,N34044465,51.4516014,5.4722794,"Albert Heijn,",supermarket,food_choices,POINT (671777.5252909478 5702945.857050933),2564,2627,Netherlands,Eindhoven,293437.7853,98,"Eindhoven, Netherlands",671777.5252909478,5702945.857050933,1268350533,18
84.0,N34044470,51.4350011,5.4516307,"Albert Heijn XL,",supermarket,food_choices,POINT (670404.8188151716 5701051.839386606),2564,2627,Netherlands,Eindhoven,293437.7853,98,"Eindhoven, Netherlands",670404.8188151716,5701051.839386606,10203501717,19
84.0,N34044495,51.4769954,5.4929612,"Albert Heijn,",supermarket,food_choices,POINT (673118.166077669 5705818.114536409),2564,2627,Netherlands,Eindhoven,293437.7853,98,"Eindhoven, Netherlands",673118.166077669,5705818.114536409,6296036172,4
84.0,N34046424,51.4453412,5.5217386,"Lidl,",supermarket,food_choices,POINT (675237.5057659468 5702366.982749717),2564,2627,Netherlands,Eindhoven,293437.7853,98,"Eindhoven, Netherlands",675237.5057659468,5702366.982749717,7659229656,17
84.0,N34046466,51.4692717,5.4745958,"Lidl,",supermarket,food_choices,POINT (671872.0348639365 5704916.044300429),2564,2627,Netherlands,Eindhoven,293437.7853,98,"Eindhoven, Netherlands",671872.0348639365,5704916.044300429,11663176691,13
63.0,N42568398,51.4153145,5.497902,"Eindhoven, Floraplein",stop_position,mobility,POINT (673695.1902514996 5698971.587529896),2564,2627,Netherlands,Eindhoven,293437.7853,98,"Eindhoven, Netherlands",673695.1902514996,5698971.587529896,42568870,12
63.0,N42569116,51.4154352,5.4980211,"Eindhoven, Floraplein",stop_position,mobility,POINT (673703.013210545 5698985.290338438),2564,2627,Netherlands,Eindhoven,293437.7853,98,"Eindhoven, Netherlands",673703.013210545,5698985.290338438,42568870,12
63.0,N42575981,51.4181683,5.4964023,"Eindhoven, Pioenroosstraat",stop_position,mobility,POINT (673580.1069536391 5699285.342271513),2564,2627,Netherlands,Eindhoven,293437.7853,98,"Eindhoven, Netherlands",673580.1069536391,5699285.342271513,42575981,12
63.0,N42581436,51.4202698,5.4469944,"Eindhoven, Gagelbosch",stop_position,mobility,POINT (670137.3335974276 5699403.097886466),2564,2627,Netherlands,Eindhoven,293437.7853,98,"Eindhoven, Netherlands",670137.3335974276,5699403.097886466,1334972603,16
63.0,N42583774,51.4211445,5.442472,"Eindhoven, Akerendam",stop_position,mobility,POINT (669819.6943644414 5699489.861932703),2564,2627,Netherlands,Eindhoven,293437.7853,98,"Eindhoven, Netherlands",669819.6943644414,5699489.861932703,1132461899,16
64.0,N42697260,51.4639739,5.482425,"Generaal Hardenbergpad,",platform,mobility,POINT (672435.709706879 5704345.395295589),2564,2627,Netherlands,Eindhoven,293437.7853,98,"Eindhoven, Netherlands",672435.709706879,5704345.395295589,1973450946,13
63.0,N42698432,51.4644056,5.4706799,"Eindhoven, Catharina Ziekenhuis Zuid",stop_position,mobility,POINT (671618.3575622678 5704365.798261324),2564,2627,Netherlands,Eindhoven,293437.7853,98,"Eindhoven, Netherlands",671618.3575622678,5704365.798261324,9514083082,3
63.0,N42709200,51.4682114,5.4726295,"Eindhoven, WoensXL/Genovevalaan",stop_position,mobility,POINT (671739.4677604638 5704793.535416121),2564,2627,Netherlands,Eindhoven,293437.7853,98,"Eindhoven, Netherlands",671739.4677604638,5704793.535416121,11663176671,13
63.0,N42609951,51.4315081,5.5016109,"Eindhoven, Otto Veniusweg",stop_position,mobility,POINT (673891.5599396146 5700780.927239419),2564,2627,Netherlands,Eindhoven,293437.7853,98,"Eindhoven, Netherlands",673891.5599396146,5700780.927239419,42610017,9
63.0,N42619571,51.4355219,5.4746949,"Eindhoven, Grote Berg",stop_position,mobility,POINT (672005.7583592195 5701163.6600054),2564,2627,Netherlands,Eindhoven,293437.7853,98,"Eindhoven, Netherlands",672005.7583592195,5701163.6600054,12032936801,1
63.0,N42622076,51.436704,5.4839959,"Eindhoven, Smalle Haven",stop_position,mobility,POINT (672647.6839622692 5701316.980658626),2564,2627,Netherlands,Eindhoven,293437.7853,98,"Eindhoven, Netherlands",672647.6839622692,5701316.980658626,7255651067,46
64.0,N42626361,51.4385598,5.5028678,"Rembrandtplein,",platform,mobility,POINT (673952.119259058 5701567.980041093),2564,2627,Netherlands,Eindhoven,293437.7853,98,"Eindhoven, Netherlands",673952.119259058,5701567.980041093,42626610,0
63.0,N42628440,51.4393418,5.5185181,"Eindhoven, Generaal Cronjestraat",stop_position,mobility,POINT (675036.6867890891 5701692.217855324),2564,2627,Netherlands,Eindhoven,293437.7853,98,"Eindhoven, Netherlands",675036.6867890891,5701692.217855324,11844311629,17
63.0,N42765410,51.487317,5.44926,"Eindhoven, Calaislaan",stop_position,mobility,POINT (670045.4418294681 5706863.327167082),2564,2627,Netherlands,Eindhoven,293437.7853,98,"Eindhoven, Netherlands",670045.4418294681,5706863.327167082,7235886848,15
63.0,N53277363,51.4512882,5.5120593,"Eindhoven, Van Oldenbarneveltlaan",stop_position,mobility,POINT (674542.2931273207 5703005.103191012),2564,2627,Netherlands,Eindhoven,293437.7853,98,"Eindhoven, Netherlands",674542.2931273207,5703005.103191012,25547663,49
63.0,N53277364,51.4515364,5.5134037,"Eindhoven, Van Oldenbarneveltlaan",stop_position,mobility,POINT (674634.7436511079 5703035.905653481),2564,2627,Netherlands,Eindhoven,293437.7853,98,"Eindhoven, Netherlands",674634.7436511079,5703035.905653481,42661455,49
22.0,N84201162,51.4364808,5.4775844,"De Karseboom,",cafe,food_choices,POINT (672202.9604751883 5701277.06903015),2564,2627,Netherlands,Eindhoven,293437.7853,98,"Eindhoven, Netherlands",672202.9604751883,5701277.06903015,42621143,1
22.0,N84201162,51.4364808,5.4775844,"De Karseboom,",restaurant,food_choices,POINT (672202.9604751883 5701277.06903015),2564,2627,Netherlands,Eindhoven,293437.7853,98,"Eindhoven, Netherlands",672202.9604751883,5701277.06903015,42621143,1
32.0,N119209139,51.4408406,5.4807205,"Pathé Eindhoven,",cinema,nightlife,POINT (672404.4807329248 5701769.209043103),2564,2627,Netherlands,Eindhoven,293437.7853,98,"Eindhoven, Netherlands",672404.4807329248,5701769.209043103,1270749919,1
64.0,N238240421,51.4264026,5.4935963,"St. Servaasweg,",platform,mobility,POINT (673353.8569467416 5700194.256781877),2564,2627,Netherlands,Eindhoven,293437.7853,98,"Eindhoven, Netherlands",673353.8569467416,5700194.256781877,42597600,20
63.0,N239964399,51.4388981,5.466081,"Eindhoven, Gagelstraat",stop_position,mobility,POINT (671394.4824815206 5701518.8627814995),2564,2627,Netherlands,Eindhoven,293437.7853,98,"Eindhoven, Netherlands",671394.4824815206,5701518.8627814995,10982897766,1
63.0,N239964413,51.4384579,5.4718245,"Eindhoven, Wilhelminaplein",stop_position,mobility,POINT (671795.2571790647 5701483.37411494),2564,2627,Netherlands,Eindhoven,293437.7853,98,"Eindhoven, Netherlands",671795.2571790647,5701483.37411494,42626077,1
63.0,N239964414,51.4384443,5.4719913,"Eindhoven, Wilhelminaplein",stop_position,mobility,POINT (671806.8994589808 5701482.25321803),2564,2627,Netherlands,Eindhoven,293437.7853,98,"Eindhoven, Netherlands",671806.8994589808,5701482.25321803,42625903,1
64.0,N243997387,51.4444952,5.521279,"Broekakkerseweg,",platform,mobility,POINT (675208.8114840724 5702271.817725728),2564,2627,Netherlands,Eindhoven,293437.7853,98,"Eindhoven, Netherlands",675208.8114840724,5702271.817725728,5721773139,17
63.0,N256424595,51.4330285,5.4899277,"Eindhoven, Geldropseweg",stop_position,mobility,POINT (673073.8054851335 5700922.306081549),2564,2627,Netherlands,Eindhoven,293437.7853,98,"Eindhoven, Netherlands",673073.8054851335,5700922.306081549,1271066158,0
63.0,N268774302,51.4386012,5.4650556,"Eindhoven, Gagelstraat",stop_position,mobility,POINT (671324.3374678788 5701483.451508746),2564,2627,Netherlands,Eindhoven,293437.7853,98,"Eindhoven, Netherlands",671324.3374678788,5701483.451508746,4583616502,1
22.0,N303274482,51.4103226,5.4562079,"The Mart,",cafe,food_choices,POINT (670814.9387361401 5698318.516118266),2564,2627,Netherlands,Eindhoven,293437.7853,98,"Eindhoven, Netherlands",670814.9387361401,5698318.516118266,8742126849,16
22.0,N303274482,51.4103226,5.4562079,"The Mart,",restaurant,food_choices,POINT (670814.9387361401 5698318.516118266),2564,2627,Netherlands,Eindhoven,293437.7853,98,"Eindhoven, Netherlands",670814.9387361401,5698318.516118266,8742126849,16
5.0,N309684739,51.4667389,5.4947439,"ROC,",college,education,POINT (673280.8142996129 5704681.919830617),2564,2627,Netherlands,Eindhoven,293437.7853,98,"Eindhoven, Netherlands",673280.8142996129,5704681.919830617,6223042181,23
63.0,N318155748,51.4727495,5.4793763,"Eindhoven, Rooseveltlaan",stop_position,mobility,POINT (672190.9175051346 5705313.973459067),2564,2627,Netherlands,Eindhoven,293437.7853,98,"Eindhoven, Netherlands",672190.9175051346,5705313.973459067,1271724628,13
63.0,N318167163,51.4751784,5.4796125,"Eindhoven, Bisschop Bekkerslaan",stop_position,mobility,POINT (672198.169703462 5705584.597384555),2564,2627,Netherlands,Eindhoven,293437.7853,98,"Eindhoven, Netherlands",672198.169703462,5705584.597384555,6830119079,33
22.0,N338439574,51.4424895,5.434892,"Gemeenschapshuis de Lievendaal,",cafe,food_choices,POINT (669213.8376212545 5701845.662449832),2564,2627,Netherlands,Eindhoven,293437.7853,98,"Eindhoven, Netherlands",669213.8376212545,5701845.662449832,10743246423,8
22.0,N338439574,51.4424895,5.434892,"Gemeenschapshuis de Lievendaal,",restaurant,food_choices,POINT (669213.8376212545 5701845.662449832),2564,2627,Netherlands,Eindhoven,293437.7853,98,"Eindhoven, Netherlands",669213.8376212545,5701845.662449832,10743246423,8
22.0,N428570538,51.4463815,5.484243,"De Zwarte Doos,",cafe,food_choices,POINT (672628.350288529 5702393.594355702),2564,2627,Netherlands,Eindhoven,293437.7853,98,"Eindhoven, Netherlands",672628.350288529,5702393.594355702,54744495,31
22.0,N428570538,51.4463815,5.484243,"De Zwarte Doos,",restaurant,food_choices,POINT (672628.350288529 5702393.594355702),2564,2627,Netherlands,Eindhoven,293437.7853,98,"Eindhoven, Netherlands",672628.350288529,5702393.594355702,54744495,31
73.0,N429798201,51.443365,5.4786069,"Albert Heijn to go,",convenience,food_choices,POINT (672248.1096376005 5702044.921240778),2564,2627,Netherlands,Eindhoven,293437.7853,98,"Eindhoven, Netherlands",672248.1096376005,5702044.921240778,2701116192,1
23.0,N440931077,51.443043,5.4353329,"Cafetaria De Lievendaal,",fast_food,food_choices,POINT (669242.4272229477 5701908.224866055),2564,2627,Netherlands,Eindhoven,293437.7853,98,"Eindhoven, Netherlands",669242.4272229477,5701908.224866055,42638523,8
25.0,N446907490,51.4494391,5.4575443,"PopEi,",pub,nightlife,POINT (670761.9197012631 5702670.968049055),2564,2627,Netherlands,Eindhoven,293437.7853,98,"Eindhoven, Netherlands",670761.9197012631,5702670.968049055,8727824085,10
59.0,N446907518,51.4488989,5.4575198,"Health City,",sports_centre,active_living,POINT (670762.2335911798 5702610.846306076),2564,2627,Netherlands,Eindhoven,293437.7853,98,"Eindhoven, Netherlands",670762.2335911798,5702610.846306076,535988649,10
57.0,N446907522,51.4480328,5.456565,"Area 51,",pitch,active_living,POINT (670699.128810319 5702512.31892371),2564,2627,Netherlands,Eindhoven,293437.7853,98,"Eindhoven, Netherlands",670699.128810319,5702512.31892371,1909884822,10
84.0,N476507837,51.4886414,5.4402038,"Albert Heijn Jan Linders,",supermarket,food_choices,POINT (669411.8694139003 5706989.585997169),2564,2627,Netherlands,Eindhoven,293437.7853,98,"Eindhoven, Netherlands",669411.8694139003,5706989.585997169,42770126,15
84.0,N497947321,51.4186694,5.4392383,"ALDI,",supermarket,food_choices,POINT (669604.0570530279 5699207.165702),2564,2627,Netherlands,Eindhoven,293437.7853,98,"Eindhoven, Netherlands",669604.0570530279,5699207.165702,420826009,16
10.0,N501975668,51.4710142,5.473745,"Apotheek SGE Woensel,",pharmacy,health_wellbeing,POINT (671806.4031727997 5705107.795060172),2564,2627,Netherlands,Eindhoven,293437.7853,98,"Eindhoven, Netherlands",671806.4031727997,5705107.795060172,12222992590,13
22.0,N516797256,51.4371085,5.476181,"Mood,",cafe,food_choices,POINT (672103.071562571 5701343.563645368),2564,2627,Netherlands,Eindhoven,293437.7853,98,"Eindhoven, Netherlands",672103.071562571,5701343.563645368,1886079825,1
22.0,N516797256,51.4371085,5.476181,"Mood,",restaurant,food_choices,POINT (672103.071562571 5701343.563645368),2564,2627,Netherlands,Eindhoven,293437.7853,98,"Eindhoven, Netherlands",672103.071562571,5701343.563645368,1886079825,1
30.0,N516807954,51.4405502,5.4793471,"Fair Play Casino,",casino,nightlife,POINT (672310.1390721824 5701733.6875186255),2564,2627,Netherlands,Eindhoven,293437.7853,98,"Eindhoven, Netherlands",672310.1390721824,5701733.6875186255,6124781812,1
22.0,N525695763,51.4415602,5.5047149,"Time for Dinner Eindhoven,",cafe,food_choices,POINT (674069.0652950658 5701905.978990902),2564,2627,Netherlands,Eindhoven,293437.7853,98,"Eindhoven, Netherlands",674069.0652950658,5701905.978990902,5229124064,0
22.0,N525695763,51.4415602,5.5047149,"Time for Dinner Eindhoven,",restaurant,food_choices,POINT (674069.0652950658 5701905.978990902),2564,2627,Netherlands,Eindhoven,293437.7853,98,"Eindhoven, Netherlands",674069.0652950658,5701905.978990902,5229124064,0
23.0,N528939774,51.4405384,5.4966897,"Cafetaria de Tongelhoek,",fast_food,food_choices,POINT (673515.2939707632 5701773.322029592),2564,2627,Netherlands,Eindhoven,293437.7853,98,"Eindhoven, Netherlands",673515.2939707632,5701773.322029592,42631177,0
22.0,N530637257,51.4346418,5.4828334,"Karel1 Museumcafé,",cafe,food_choices,POINT (672574.6708234407 5701084.947206491),2564,2627,Netherlands,Eindhoven,293437.7853,98,"Eindhoven, Netherlands",672574.6708234407,5701084.947206491,9581538023,46
22.0,N530637257,51.4346418,5.4828334,"Karel1 Museumcafé,",restaurant,food_choices,POINT (672574.6708234407 5701084.947206491),2564,2627,Netherlands,Eindhoven,293437.7853,98,"Eindhoven, Netherlands",672574.6708234407,5701084.947206491,9581538023,46
29.0,N531679112,51.4376579,5.4805748,"Dynamo,",bar,nightlife,POINT (672406.3440558293 5701414.98484499),2564,2627,Netherlands,Eindhoven,293437.7853,98,"Eindhoven, Netherlands",672406.3440558293,5701414.98484499,42624230,1
10.0,N536671390,51.4431711,5.4411653,"Apotheek SGE Strijp,",pharmacy,health_wellbeing,POINT (669647.218014905 5701935.962843467),2564,2627,Netherlands,Eindhoven,293437.7853,98,"Eindhoven, Netherlands",669647.218014905,5701935.962843467,11847584501,8
8.0,N536671392,51.4432346,5.4413316,"Gezondheidscentrum Strijp,",doctors,health_wellbeing,POINT (669658.537969176 5701943.408640553),2564,2627,Netherlands,Eindhoven,293437.7853,98,"Eindhoven, Netherlands",669658.537969176,5701943.408640553,11847584502,8
22.0,N538236019,51.4365536,5.4777335,"K-Town,",cafe,food_choices,POINT (672213.0482627101 5701285.514164922),2564,2627,Netherlands,Eindhoven,293437.7853,98,"Eindhoven, Netherlands",672213.0482627101,5701285.514164922,42621143,1
22.0,N538236019,51.4365536,5.4777335,"K-Town,",restaurant,food_choices,POINT (672213.0482627101 5701285.514164922),2564,2627,Netherlands,Eindhoven,293437.7853,98,"Eindhoven, Netherlands",672213.0482627101,5701285.514164922,42621143,1
64.0,N557202274,51.4889988,5.4404477,"De Hoeve,",platform,mobility,POINT (669427.4746621407 5707029.890080096),2564,2627,Netherlands,Eindhoven,293437.7853,98,"Eindhoven, Netherlands",669427.4746621407,5707029.890080096,42772143,15
64.0,N557202278,51.4893951,5.4406072,"De Hoeve,",platform,mobility,POINT (669437.0767724086 5707074.324131126),2564,2627,Netherlands,Eindhoven,293437.7853,98,"Eindhoven, Netherlands",669437.0767724086,5707074.324131126,11843649331,15
22.0,N565735594,51.4430925,5.4550855,"Djawa,",cafe,food_choices,POINT (670614.7549979866 5701959.561383267),2564,2627,Netherlands,Eindhoven,293437.7853,98,"Eindhoven, Netherlands",670614.7549979866,5701959.561383267,9567992854,10
22.0,N565735594,51.4430925,5.4550855,"Djawa,",restaurant,food_choices,POINT (670614.7549979866 5701959.561383267),2564,2627,Netherlands,Eindhoven,293437.7853,98,"Eindhoven, Netherlands",670614.7549979866,5701959.561383267,9567992854,10
22.0,N567669422,51.4407669,5.4752552,"Café Restaurant Eindhoven,",cafe,food_choices,POINT (672024.9843522125 5701748.162719408),2564,2627,Netherlands,Eindhoven,293437.7853,98,"Eindhoven, Netherlands",672024.9843522125,5701748.162719408,42631746,1
22.0,N567669422,51.4407669,5.4752552,"Café Restaurant Eindhoven,",restaurant,food_choices,POINT (672024.9843522125 5701748.162719408),2564,2627,Netherlands,Eindhoven,293437.7853,98,"Eindhoven, Netherlands",672024.9843522125,5701748.162719408,42631746,1
22.0,N568077329,51.4335715,5.492756,"Iris,",cafe,food_choices,POINT (673268.3167429361 5700989.368583125),2564,2627,Netherlands,Eindhoven,293437.7853,98,"Eindhoven, Netherlands",673268.3167429361,5700989.368583125,8914748525,0
22.0,N568077329,51.4335715,5.492756,"Iris,",restaurant,food_choices,POINT (673268.3167429361 5700989.368583125),2564,2627,Netherlands,Eindhoven,293437.7853,98,"Eindhoven, Netherlands",673268.3167429361,5700989.368583125,8914748525,0
20.0,N586454620,51.4390148,5.4744454,"de Bibliotheek Eindhoven,",library,community_space,POINT (671975.2958349184 5701551.446424697),2564,2627,Netherlands,Eindhoven,293437.7853,98,"Eindhoven, Netherlands",671975.2958349184,5701551.446424697,42627534,1
16.0,N586912222,51.4188824,5.4418128,"Wijkgebouw 't Slot,",community_centre,community_space,POINT (669782.2525503985 5699236.812446921),2564,2627,Netherlands,Eindhoven,293437.7853,98,"Eindhoven, Netherlands",669782.2525503985,5699236.812446921,10219529465,16
16.0,N586912231,51.4769852,5.4943509,"BIEB Dommelbeemd,",community_centre,community_space,POINT (673214.6957282131 5705820.2680244725),2564,2627,Netherlands,Eindhoven,293437.7853,98,"Eindhoven, Netherlands",673214.6957282131,5705820.2680244725,7125099966,4
47.0,N610994075,51.4400441,5.4802603,"ABN AMRO,",bank,community_space,POINT (672375.5020278831 5701679.56373198),2564,2627,Netherlands,Eindhoven,293437.7853,98,"Eindhoven, Netherlands",672375.5020278831,5701679.56373198,7255585965,1
64.0,N611114670,51.4374457,5.4912958,"DAF Museum,",platform,mobility,POINT (673152.1796679336 5701416.682647907),2564,2627,Netherlands,Eindhoven,293437.7853,98,"Eindhoven, Netherlands",673152.1796679336,5701416.682647907,2621685669,0
64.0,N611114675,51.4373151,5.4907919,"DAF Museum,",platform,mobility,POINT (673117.6560088859 5701400.970189527),2564,2627,Netherlands,Eindhoven,293437.7853,98,"Eindhoven, Netherlands",673117.6560088859,5701400.970189527,611581273,0
22.0,N616510426,51.4442889,5.453831,"Cafetaria Strijp,",cafe,food_choices,POINT (670523.1281780062 5702089.666698587),2564,2627,Netherlands,Eindhoven,293437.7853,98,"Eindhoven, Netherlands",670523.1281780062,5702089.666698587,11710942030,10
22.0,N616510426,51.4442889,5.453831,"Cafetaria Strijp,",restaurant,food_choices,POINT (670523.1281780062 5702089.666698587),2564,2627,Netherlands,Eindhoven,293437.7853,98,"Eindhoven, Netherlands",670523.1281780062,5702089.666698587,11710942030,10
63.0,N619776505,51.4535333,5.4709795,"Eindhoven, Sint Petruskerk",stop_position,mobility,POINT (671679.9691092398 5703157.615206201),2564,2627,Netherlands,Eindhoven,293437.7853,98,"Eindhoven, Netherlands",671679.9691092398,5703157.615206201,7380718834,18
64.0,N619776508,51.4555132,5.4708642,"Kloosterdreef,",platform,mobility,POINT (671664.5296140194 5703377.48880012),2564,2627,Netherlands,Eindhoven,293437.7853,98,"Eindhoven, Netherlands",671664.5296140194,5703377.48880012,8907178554,18
64.0,N619776519,51.4479665,5.4773337,"Gildelaan,",platform,mobility,POINT (672142.3316702279 5702553.564284636),2564,2627,Netherlands,Eindhoven,293437.7853,98,"Eindhoven, Netherlands",672142.3316702279,5702553.564284636,42652365,31
64.0,N619776524,51.4474099,5.4770688,"Gildelaan,",platform,mobility,POINT (672126.0208689957 5702491.05369964),2564,2627,Netherlands,Eindhoven,293437.7853,98,"Eindhoven, Netherlands",672126.0208689957,5702491.05369964,7372929388,31
64.0,N619776550,51.4394245,5.4955049,"Rubensstraat,",platform,mobility,POINT (673437.1850172665 5701646.662458279),2564,2627,Netherlands,Eindhoven,293437.7853,98,"Eindhoven, Netherlands",673437.1850172665,5701646.662458279,8891106549,0
64.0,N619776554,51.4390361,5.4973107,"Rubensstraat,",platform,mobility,POINT (673564.142945977 5701607.754764023),2564,2627,Netherlands,Eindhoven,293437.7853,98,"Eindhoven, Netherlands",673564.142945977,5701607.754764023,42627744,0
63.0,N619776563,51.439011,5.5136232,"Eindhoven, President Steynstraat",stop_position,mobility,POINT (674697.8030528317 5701643.7491683755),2564,2627,Netherlands,Eindhoven,293437.7853,98,"Eindhoven, Netherlands",674697.8030528317,5701643.7491683755,4425893260,17
64.0,N619776581,51.4393005,5.5192403,"Generaal Cronjestraat,",platform,mobility,POINT (675087.0303858063 5701689.352106464),2564,2627,Netherlands,Eindhoven,293437.7853,98,"Eindhoven, Netherlands",675087.0303858063,5701689.352106464,1563777268,17
64.0,N619776586,51.4411177,5.5224528,"Heerbaan,",platform,mobility,POINT (675303.3065596712 5701899.088413362),2564,2627,Netherlands,Eindhoven,293437.7853,98,"Eindhoven, Netherlands",675303.3065596712,5701899.088413362,42633442,17
64.0,N619776602,51.4610217,5.4698443,"Joris Minnestraat,",platform,mobility,POINT (671573.0177139472 5703987.585487509),2564,2627,Netherlands,Eindhoven,293437.7853,98,"Eindhoven, Netherlands",671573.0177139472,5703987.585487509,42689131,3
64.0,N619776606,51.464379,5.4711115,"Catharina Ziekenhuis Zuid,",platform,mobility,POINT (671648.4330511484 5704363.852431663),2564,2627,Netherlands,Eindhoven,293437.7853,98,"Eindhoven, Netherlands",671648.4330511484,5704363.852431663,42698508,3
64.0,N619776658,51.4821642,5.454563,"Autowijk,",platform,mobility,POINT (670432.7809991012 5706302.7204845585),2564,2627,Netherlands,Eindhoven,293437.7853,98,"Eindhoven, Netherlands",670432.7809991012,5706302.7204845585,5504198061,15
64.0,N619776696,51.4687824,5.4785456,"WoensXL/Rooseveltlaan,",platform,mobility,POINT (672148.1706102487 5704870.919837582),2564,2627,Netherlands,Eindhoven,293437.7853,98,"Eindhoven, Netherlands",672148.1706102487,5704870.919837582,3055519769,13
64.0,N619776698,51.4699517,5.4790916,"WoensXL/Rooseveltlaan,",platform,mobility,POINT (672181.6844943238 5705002.217775847),2564,2627,Netherlands,Eindhoven,293437.7853,98,"Eindhoven, Netherlands",672181.6844943238,5705002.217775847,3055532806,13
63.0,N619776699,51.4789804,5.4779505,"Eindhoven, Belgiëplein",stop_position,mobility,POINT (672068.4544371102 5706003.4319800595),2564,2627,Netherlands,Eindhoven,293437.7853,98,"Eindhoven, Netherlands",672068.4544371102,5706003.4319800595,42739039,33
64.0,N619776702,51.4815526,5.4780063,"Leuvenlaan,",platform,mobility,POINT (672062.6448330617 5706289.56524912),2564,2627,Netherlands,Eindhoven,293437.7853,98,"Eindhoven, Netherlands",672062.6448330617,5706289.56524912,42747482,33
64.0,N619776704,51.4912361,5.4516245,"Castiliëlaan,",platform,mobility,POINT (670194.9809326786 5707304.589367013),2564,2627,Netherlands,Eindhoven,293437.7853,98,"Eindhoven, Netherlands",670194.9809326786,5707304.589367013,9929423861,15
64.0,N619813887,51.451447,5.4843212,"TU Eindhoven,",platform,mobility,POINT (672614.6728001407 5702957.006962524),2564,2627,Netherlands,Eindhoven,293437.7853,98,"Eindhoven, Netherlands",672614.6728001407,5702957.006962524,12688821494,31
64.0,N619813896,51.4508349,5.4831382,"TU Eindhoven,",platform,mobility,POINT (672534.7957751943 5702886.160047609),2564,2627,Netherlands,Eindhoven,293437.7853,98,"Eindhoven, Netherlands",672534.7957751943,5702886.160047609,11809677976,31
64.0,N619813929,51.468793,5.472259,"WoensXL/Genovevalaan,",platform,mobility,POINT (671711.5536431753 5704857.334198132),2564,2627,Netherlands,Eindhoven,293437.7853,98,"Eindhoven, Netherlands",671711.5536431753,5704857.334198132,765570013,13
64.0,N619813933,51.468245,5.472719,"WoensXL/Genovevalaan,",platform,mobility,POINT (671745.5570229747 5704797.48134871),2564,2627,Netherlands,Eindhoven,293437.7853,98,"Eindhoven, Netherlands",671745.5570229747,5704797.48134871,11663176671,13
64.0,N619863404,51.4733404,5.4927279,"Saturnusweg,",platform,mobility,POINT (673115.8085163468 5705411.165820648),2564,2627,Netherlands,Eindhoven,293437.7853,98,"Eindhoven, Netherlands",673115.8085163468,5705411.165820648,6294577903,23
64.0,N619863405,51.4734105,5.4924313,"Saturnusweg,",platform,mobility,POINT (673094.9476214465 5705418.258805427),2564,2627,Netherlands,Eindhoven,293437.7853,98,"Eindhoven, Netherlands",673094.9476214465,5705418.258805427,6294577905,23
64.0,N619863407,51.478206,5.4920011,"Wijnpeerstraat,",platform,mobility,POINT (673046.9202193549 5705950.450151897),2564,2627,Netherlands,Eindhoven,293437.7853,98,"Eindhoven, Netherlands",673046.9202193549,5705950.450151897,6777935406,4
64.0,N619863408,51.4830155,5.4927843,"Kruburg,",platform,mobility,POINT (673083.0837483024 5706487.067464585),2564,2627,Netherlands,Eindhoven,293437.7853,98,"Eindhoven, Netherlands",673083.0837483024,5706487.067464585,6777862835,4
64.0,N619863411,51.4779287,5.5007434,"Braambesweg,",platform,mobility,POINT (673654.9612287681 5705940.321423946),2564,2627,Netherlands,Eindhoven,293437.7853,98,"Eindhoven, Netherlands",673654.9612287681,5705940.321423946,7125099891,4
64.0,N619863412,51.4804897,5.5008717,"Italiëlaan,",platform,mobility,POINT (673654.1387485098 5706225.381434363),2564,2627,Netherlands,Eindhoven,293437.7853,98,"Eindhoven, Netherlands",673654.1387485098,5706225.381434363,10016097113,4
64.0,N619863413,51.4841694,5.4975942,"Venetiëstraat,",platform,mobility,POINT (673412.6265022452 5706626.754122531),2564,2627,Netherlands,Eindhoven,293437.7853,98,"Eindhoven, Netherlands",673412.6265022452,5706626.754122531,42756608,4
64.0,N619863414,51.4834586,5.5016816,"Livornostraat,",platform,mobility,POINT (673699.0836841045 5706557.413014933),2564,2627,Netherlands,Eindhoven,293437.7853,98,"Eindhoven, Netherlands",673699.0836841045,5706557.413014933,6292188216,4
63.0,N619930352,51.4163097,5.4915084,"Eindhoven, Kortonjolaan",stop_position,mobility,POINT (673246.9005771431 5699067.103081198),2564,2627,Netherlands,Eindhoven,293437.7853,98,"Eindhoven, Netherlands",673246.9005771431,5699067.103081198,42570204,12
63.0,N619930353,51.4195037,5.4920999,"Winkelstraat,",stop_position,mobility,POINT (673275.9421335967 5699423.6379357865),2564,2627,Netherlands,Eindhoven,293437.7853,98,"Eindhoven, Netherlands",673275.9421335967,5699423.6379357865,42578618,12
64.0,N619930364,51.4352549,5.479706,"Stadhuisplein,",platform,mobility,POINT (672355.0160478435 5701145.752937809),2564,2627,Netherlands,Eindhoven,293437.7853,98,"Eindhoven, Netherlands",672355.0160478435,5701145.752937809,42619187,1
64.0,N619930371,51.4371848,5.4770853,"Keizersgracht,",platform,mobility,POINT (672165.6278331392 5701354.172734668),2564,2627,Netherlands,Eindhoven,293437.7853,98,"Eindhoven, Netherlands",672165.6278331392,5701354.172734668,42623344,1
64.0,N619930382,51.4295692,5.4862046,"Parktheater,",platform,mobility,POINT (672828.10822772 5700528.879706054),2564,2627,Netherlands,Eindhoven,293437.7853,98,"Eindhoven, Netherlands",672828.10822772,5700528.879706054,9767790233,20
64.0,N619930384,51.4319423,5.4850601,"P.C. Hooftlaan,",platform,mobility,POINT (672739.6061216026 5700790.04194889),2564,2627,Netherlands,Eindhoven,293437.7853,98,"Eindhoven, Netherlands",672739.6061216026,5700790.04194889,11682045490,46
64.0,N619930386,51.4323519,5.4842381,"P.C. Hooftlaan,",platform,mobility,POINT (672680.9309447089 5700833.646612682),2564,2627,Netherlands,Eindhoven,293437.7853,98,"Eindhoven, Netherlands",672680.9309447089,5700833.646612682,42611819,46
64.0,N619930387,51.4303777,5.4859845,"Parktheater,",platform,mobility,POINT (672809.7586563244 5700618.256502919),2564,2627,Netherlands,Eindhoven,293437.7853,98,"Eindhoven, Netherlands",672809.7586563244,5700618.256502919,9767618326,20
64.0,N619930389,51.426174,5.4894023,"Heistraat,",platform,mobility,POINT (673063.1963882935 5700158.921887263),2564,2627,Netherlands,Eindhoven,293437.7853,98,"Eindhoven, Netherlands",673063.1963882935,5700158.921887263,3579528823,20
64.0,N619930390,51.4264925,5.4890213,"Heistraat,",platform,mobility,POINT (673035.5094662968 5700193.4353779135),2564,2627,Netherlands,Eindhoven,293437.7853,98,"Eindhoven, Netherlands",673035.5094662968,5700193.4353779135,42598714,20
64.0,N619930409,51.4400084,5.4752288,"Witte Dame,",platform,mobility,POINT (672026.0006589708 5701663.763766184),2564,2627,Netherlands,Eindhoven,293437.7853,98,"Eindhoven, Netherlands",672026.0006589708,5701663.763766184,9631389857,1
63.0,N619930416,51.4205346,5.4953839,"Eindhoven, Korianderstraat",stop_position,mobility,POINT (673500.3419012295 5699546.034877577),2564,2627,Netherlands,Eindhoven,293437.7853,98,"Eindhoven, Netherlands",673500.3419012295,5699546.034877577,5229033730,12
63.0,N619930418,51.4229188,5.4937404,"Eindhoven, Varenstraat",stop_position,mobility,POINT (673377.0621555004 5699807.239245055),2564,2627,Netherlands,Eindhoven,293437.7853,98,"Eindhoven, Netherlands",673377.0621555004,5699807.239245055,1012358164,12
64.0,N619956655,51.4453457,5.4707854,"Zernikestraat,",platform,mobility,POINT (671697.206633258 5702246.786320889),2564,2627,Netherlands,Eindhoven,293437.7853,98,"Eindhoven, Netherlands",671697.206633258,5702246.786320889,877262229,31
64.0,N619956657,51.4572264,5.4591752,"Minckelersplein,",platform,mobility,POINT (670846.1433134791 5703540.639336863),2564,2627,Netherlands,Eindhoven,293437.7853,98,"Eindhoven, Netherlands",670846.1433134791,5703540.639336863,42677470,3
64.0,N619956659,51.4564019,5.4597701,"Minckelersplein,",platform,mobility,POINT (670890.5473016466 5703450.351733208),2564,2627,Netherlands,Eindhoven,293437.7853,98,"Eindhoven, Netherlands",670890.5473016466,5703450.351733208,361127165,3
64.0,N619956661,51.4505716,5.4656121,"Gemmastraat,",platform,mobility,POINT (671318.1915290151 5702815.734545752),2564,2627,Netherlands,Eindhoven,293437.7853,98,"Eindhoven, Netherlands",671318.1915290151,5702815.734545752,11386619166,10
64.0,N619956663,51.454017,5.4621558,"Wattstraat,",platform,mobility,POINT (671065.1871852772 5703190.746407912),2564,2627,Netherlands,Eindhoven,293437.7853,98,"Eindhoven, Netherlands",671065.1871852772,5703190.746407912,6205700467,10
64.0,N619956665,51.4540415,5.4623443,"Wattstraat,",platform,mobility,POINT (671078.1903340353 5703193.910947438),2564,2627,Netherlands,Eindhoven,293437.7853,98,"Eindhoven, Netherlands",671078.1903340353,5703193.910947438,6205700467,10
64.0,N619956667,51.4506427,5.4657947,"Gemmastraat,",platform,mobility,POINT (671330.6111383007 5702824.067336985),2564,2627,Netherlands,Eindhoven,293437.7853,98,"Eindhoven, Netherlands",671330.6111383007,5702824.067336985,11386619166,10
64.0,N619956688,51.4453767,5.4709872,"Zernikestraat,",platform,mobility,POINT (671711.111648799 5702250.706344109),2564,2627,Netherlands,Eindhoven,293437.7853,98,"Eindhoven, Netherlands",671711.111648799,5702250.706344109,877262229,31
64.0,N619956690,51.460293,5.4561593,"Vredeoord,",platform,mobility,POINT (670625.2087112495 5703874.581054121),2564,2627,Netherlands,Eindhoven,293437.7853,98,"Eindhoven, Netherlands",670625.2087112495,5703874.581054121,9445369624,3
64.0,N619956692,51.4600492,5.4561045,"Vredeoord,",platform,mobility,POINT (670622.3118501925 5703847.345281144),2564,2627,Netherlands,Eindhoven,293437.7853,98,"Eindhoven, Netherlands",670622.3118501925,5703847.345281144,9445369620,3
64.0,N619997926,51.4345334,5.4841755,"Bilderdijklaan,",platform,mobility,POINT (672668.3522341796 5701076.057478477),2564,2627,Netherlands,Eindhoven,293437.7853,98,"Eindhoven, Netherlands",672668.3522341796,5701076.057478477,42617092,46
64.0,N619997928,51.436673,5.4839604,"Smalle Haven,",platform,mobility,POINT (672645.3338313148 5701313.450119781),2564,2627,Netherlands,Eindhoven,293437.7853,98,"Eindhoven, Netherlands",672645.3338313148,5701313.450119781,7255651067,46
63.0,N619997931,51.4257348,5.5024884,"Eindhoven, Roothaanstraat",stop_position,mobility,POINT (673974.4822518252 5700141.086795228),2564,2627,Netherlands,Eindhoven,293437.7853,98,"Eindhoven, Netherlands",673974.4822518252,5700141.086795228,3885869241,9
64.0,N619997934,51.4244272,5.5064736,"Tivolilaan,",platform,mobility,POINT (674256.4721067379 5700005.169623965),2564,2627,Netherlands,Eindhoven,293437.7853,98,"Eindhoven, Netherlands",674256.4721067379,5700005.169623965,5893060022,28
63.0,N619997936,51.4285541,5.4974149,"Eindhoven, Sint Jansweg",stop_position,mobility,POINT (673611.1298480057 5700442.522863873),2564,2627,Netherlands,Eindhoven,293437.7853,98,"Eindhoven, Netherlands",673611.1298480057,5700442.522863873,5864330024,20
64.0,N620049748,51.4242775,5.4976189,"Thomas à Kempislaan,",platform,mobility,POINT (673641.5249756563 5699967.497763327),2564,2627,Netherlands,Eindhoven,293437.7853,98,"Eindhoven, Netherlands",673641.5249756563,5699967.497763327,42591500,12
64.0,N620049749,51.4214303,5.5022264,"Lavendelstraat,",platform,mobility,POINT (673972.621491117 5699661.854326774),2564,2627,Netherlands,Eindhoven,293437.7853,98,"Eindhoven, Netherlands",673972.621491117,5699661.854326774,8563458760,28
64.0,N620049750,51.4188074,5.506354,"Hertensprong,",platform,mobility,POINT (674269.5403982253 5699380.029459405),2564,2627,Netherlands,Eindhoven,293437.7853,98,"Eindhoven, Netherlands",674269.5403982253,5699380.029459405,42577931,28
64.0,N620049755,51.4183706,5.5151824,"Bunderkensven,",platform,mobility,POINT (674884.9691325221 5699352.501108597),2564,2627,Netherlands,Eindhoven,293437.7853,98,"Eindhoven, Netherlands",674884.9691325221,5699352.501108597,42575278,28
64.0,N620057225,51.4419674,5.4692134,"Philips-stadion,",platform,mobility,POINT (671600.6488616387 5701867.471080557),2564,2627,Netherlands,Eindhoven,293437.7853,98,"Eindhoven, Netherlands",671600.6488616387,5701867.471080557,262453736,1
64.0,N620057229,51.4414612,5.4704804,"Philips-stadion,",platform,mobility,POINT (671690.5871699697 5701814.156631395),2564,2627,Netherlands,Eindhoven,293437.7853,98,"Eindhoven, Netherlands",671690.5871699697,5701814.156631395,42634601,1
64.0,N620064825,51.4203428,5.4469745,"Gagelbosch,",platform,mobility,POINT (670135.6789977505 5699411.168490594),2564,2627,Netherlands,Eindhoven,293437.7853,98,"Eindhoven, Netherlands",670135.6789977505,5699411.168490594,1334972603,16
64.0,N620064834,51.435549,5.474686,"Grote Berg,",platform,mobility,POINT (672005.038017595 5701166.652327181),2564,2627,Netherlands,Eindhoven,293437.7853,98,"Eindhoven, Netherlands",672005.038017595,5701166.652327181,12032936801,1
64.0,N620072920,51.4238665,5.4532276,"Grieglaan,",platform,mobility,POINT (670557.2693796349 5699817.506961493),2564,2627,Netherlands,Eindhoven,293437.7853,98,"Eindhoven, Netherlands",670557.2693796349,5699817.506961493,11508504644,25
64.0,N620103889,51.4374781,5.4560207,"Hastelweg,",platform,mobility,POINT (670700.6749431237 5701337.478390845),2564,2627,Netherlands,Eindhoven,293437.7853,98,"Eindhoven, Netherlands",670700.6749431237,5701337.478390845,42623543,19
64.0,N620103890,51.4372961,5.455622,"Hastelweg,",platform,mobility,POINT (670673.64648166 5701316.312737652),2564,2627,Netherlands,Eindhoven,293437.7853,98,"Eindhoven, Netherlands",670673.64648166,5701316.312737652,42623543,19
64.0,N620103891,51.4362378,5.4613611,"Jozef Eliasweg,",platform,mobility,POINT (671076.4330080734 5701212.030723268),2564,2627,Netherlands,Eindhoven,293437.7853,98,"Eindhoven, Netherlands",671076.4330080734,5701212.030723268,4925027423,19
64.0,N620103892,51.4361463,5.4620495,"Jozef Eliasweg,",platform,mobility,POINT (671124.6156177297 5701203.465092939),2564,2627,Netherlands,Eindhoven,293437.7853,98,"Eindhoven, Netherlands",671124.6156177297,5701203.465092939,10033232594,19
64.0,N620103894,51.4383834,5.4587496,"Willem de Rijkelaan,",platform,mobility,POINT (670886.9359024034 5701444.501936085),2564,2627,Netherlands,Eindhoven,293437.7853,98,"Eindhoven, Netherlands",670886.9359024034,5701444.501936085,42626207,19
64.0,N620114988,51.4166441,5.464826,"Locatellistraat/Professor Holstlaan,",platform,mobility,POINT (671390.5453391409 5699041.524065922),2564,2627,Netherlands,Eindhoven,293437.7853,98,"Eindhoven, Netherlands",671390.5453391409,5699041.524065922,9431490830,25
64.0,N620114990,51.4169885,5.4664996,"Locatellistraat/Professor Holstlaan,",platform,mobility,POINT (671505.612995907 5699083.734168657),2564,2627,Netherlands,Eindhoven,293437.7853,98,"Eindhoven, Netherlands",671505.612995907,5699083.734168657,11506739638,25
63.0,N620128425,51.4452213,5.4506343,"Eindhoven, Cederlaan",stop_position,mobility,POINT (670297.5415633603 5702185.901256121),2564,2627,Netherlands,Eindhoven,293437.7853,98,"Eindhoven, Netherlands",670297.5415633603,5702185.901256121,42644243,10
64.0,N620134980,51.4155605,5.4450941,"Lichtenberg,",platform,mobility,POINT (670022.7037956377 5698875.06237681),2564,2627,Netherlands,Eindhoven,293437.7853,98,"Eindhoven, Netherlands",670022.7037956377,5698875.06237681,42569296,16
64.0,N620134981,51.4173621,5.4458518,"Roffart,",platform,mobility,POINT (670068.6957555928 5699077.139683869),2564,2627,Netherlands,Eindhoven,293437.7853,98,"Eindhoven, Netherlands",670068.6957555928,5699077.139683869,42574072,16
64.0,N620134982,51.4178575,5.4458676,"Roffart,",platform,mobility,POINT (670067.9549866265 5699132.259543004),2564,2627,Netherlands,Eindhoven,293437.7853,98,"Eindhoven, Netherlands",670067.9549866265,5699132.259543004,42575792,16
64.0,N620134983,51.4196325,5.4446927,"Kastelenplein (Oost),",platform,mobility,POINT (669979.6850229364 5699326.89383993),2564,2627,Netherlands,Eindhoven,293437.7853,98,"Eindhoven, Netherlands",669979.6850229364,5699326.89383993,361128696,16
64.0,N620134984,51.4197691,5.4495528,"Palestrinastraat,",platform,mobility,POINT (670317.0546294942 5699353.370282159),2564,2627,Netherlands,Eindhoven,293437.7853,98,"Eindhoven, Netherlands",670317.0546294942,5699353.370282159,8863398523,16
64.0,N620134985,51.4197274,5.4533164,"Verdistraat,",platform,mobility,POINT (670578.8570477827 5699357.490373293),2564,2627,Netherlands,Eindhoven,293437.7853,98,"Eindhoven, Netherlands",670578.8570477827,5699357.490373293,42580177,25
64.0,N620134986,51.4200878,5.4576892,"Reinkenstraat,",platform,mobility,POINT (670881.5115369124 5699407.753925873),2564,2627,Netherlands,Eindhoven,293437.7853,98,"Eindhoven, Netherlands",670881.5115369124,5699407.753925873,42581211,25
64.0,N620134987,51.4191444,5.4620348,"Nicolaistraat,",platform,mobility,POINT (671187.1428206158 5699313.003757647),2564,2627,Netherlands,Eindhoven,293437.7853,98,"Eindhoven, Netherlands",671187.1428206158,5699313.003757647,42578600,25
64.0,N620134988,51.4221947,5.4644729,"Sibeliuslaan,",platform,mobility,POINT (671345.2311559811 5699657.863656347),2564,2627,Netherlands,Eindhoven,293437.7853,98,"Eindhoven, Netherlands",671345.2311559811,5699657.863656347,2612950174,25
64.0,N620134989,51.4239714,5.4663081,"Bayeuxlaan,",platform,mobility,POINT (671466.1560434398 5699859.707333951),2564,2627,Netherlands,Eindhoven,293437.7853,98,"Eindhoven, Netherlands",671466.1560434398,5699859.707333951,303041871,25
64.0,N620134990,51.4234028,5.4668564,"Bayeuxlaan,",platform,mobility,POINT (671506.3998328601 5699797.768826548),2564,2627,Netherlands,Eindhoven,293437.7853,98,"Eindhoven, Netherlands",671506.3998328601,5699797.768826548,12744984743,25
63.0,N620142264,51.4403051,5.4143308,"Eindhoven, Grasrijk",stop_position,mobility,POINT (667793.1254137977 5701555.471604281),2564,2627,Netherlands,Eindhoven,293437.7853,98,"Eindhoven, Netherlands",667793.1254137977,5701555.471604281,1969225573,21
64.0,N620153535,51.4133747,5.45399,"HTC/Dommeldal,",platform,mobility,POINT (670649.3494780295 5698652.707814948),2564,2627,Netherlands,Eindhoven,293437.7853,98,"Eindhoven, Netherlands",670649.3494780295,5698652.707814948,6206728796,16
64.0,N620734155,51.4315608,5.5016402,"Otto Veniusweg,",platform,mobility,POINT (673893.396187187 5700786.856434388),2564,2627,Netherlands,Eindhoven,293437.7853,98,"Eindhoven, Netherlands",673893.396187187,5700786.856434388,42610017,9
64.0,N620784881,51.4317379,5.4959637,"Sint Jozephburch,",platform,mobility,POINT (673498.1971284996 5700793.086401047),2564,2627,Netherlands,Eindhoven,293437.7853,98,"Eindhoven, Netherlands",673498.1971284996,5700793.086401047,256424601,0
64.0,N620784882,51.4316457,5.496783,"Sint Jozephburch,",platform,mobility,POINT (673555.4894039661 5700784.77585033),2564,2627,Netherlands,Eindhoven,293437.7853,98,"Eindhoven, Netherlands",673555.4894039661,5700784.77585033,42610366,0
64.0,N621907371,51.423062,5.4852256,"Boutenslaan,",platform,mobility,POINT (672784.6137798313 5699803.0430314345),2564,2627,Netherlands,Eindhoven,293437.7853,98,"Eindhoven, Netherlands",672784.6137798313,5699803.0430314345,8752789851,12
64.0,N621907372,51.424731,5.4859515,"Boutenslaan,",platform,mobility,POINT (672828.7761296738 5699990.329339441),2564,2627,Netherlands,Eindhoven,293437.7853,98,"Eindhoven, Netherlands",672828.7761296738,5699990.329339441,5229001416,12
64.0,N621907373,51.4262856,5.4862755,"Looiakkerstraat,",platform,mobility,POINT (672845.4303960571 5700163.947740568),2564,2627,Netherlands,Eindhoven,293437.7853,98,"Eindhoven, Netherlands",672845.4303960571,5700163.947740568,2667616357,20
64.0,N621907374,51.4281502,5.4869354,"Looiakkerstraat,",platform,mobility,POINT (672884.2602249607 5700372.827511194),2564,2627,Netherlands,Eindhoven,293437.7853,98,"Eindhoven, Netherlands",672884.2602249607,5700372.827511194,11682007058,20
64.0,N622129558,51.4152976,5.4977864,"Floraplein,",platform,mobility,POINT (673687.2170437408 5698969.434377883),2564,2627,Netherlands,Eindhoven,293437.7853,98,"Eindhoven, Netherlands",673687.2170437408,5698969.434377883,42568870,12
64.0,N622129559,51.4154525,5.4981427,"Floraplein,",platform,mobility,POINT (673711.4020296072 5698987.502217948),2564,2627,Netherlands,Eindhoven,293437.7853,98,"Eindhoven, Netherlands",673711.4020296072,5698987.502217948,42568870,12
64.0,N628115057,51.4860673,5.4938901,"Tempellaan,",platform,mobility,POINT (673148.2888050219 5706829.010951894),2564,2627,Netherlands,Eindhoven,293437.7853,98,"Eindhoven, Netherlands",673148.2888050219,5706829.010951894,42761512,4
64.0,N628115060,51.486325,5.493802,"Tempellaan,",platform,mobility,POINT (673141.1965174894 5706857.456059968),2564,2627,Netherlands,Eindhoven,293437.7853,98,"Eindhoven, Netherlands",673141.1965174894,5706857.456059968,42761512,4
84.0,N649499069,51.449144,5.474473,"Ekoplaza,",supermarket,food_choices,POINT (671939.1531869392 5702677.7687230185),2564,2627,Netherlands,Eindhoven,293437.7853,98,"Eindhoven, Netherlands",671939.1531869392,5702677.7687230185,8657035181,31
71.0,N649512173,51.4491826,5.4744369,"De Groene Weg,",butcher,food_choices,POINT (671936.5000718975 5702681.975865986),2564,2627,Netherlands,Eindhoven,293437.7853,98,"Eindhoven, Netherlands",671936.5000718975,5702681.975865986,8657035181,31
22.0,N652803195,51.4189345,5.441658,"'t Slot,",cafe,food_choices,POINT (669771.2974608237 5699242.246668787),2564,2627,Netherlands,Eindhoven,293437.7853,98,"Eindhoven, Netherlands",669771.2974608237,5699242.246668787,12521330889,16
22.0,N652803195,51.4189345,5.441658,"'t Slot,",restaurant,food_choices,POINT (669771.2974608237 5699242.246668787),2564,2627,Netherlands,Eindhoven,293437.7853,98,"Eindhoven, Netherlands",669771.2974608237,5699242.246668787,12521330889,16
63.0,N654972720,51.441501,5.4705087,"Eindhoven, Philips-stadion",stop_position,mobility,POINT (671692.4043555885 5701818.648308169),2564,2627,Netherlands,Eindhoven,293437.7853,98,"Eindhoven, Netherlands",671692.4043555885,5701818.648308169,42634601,1
25.0,N662613233,51.4406914,5.4802906,"Movies,",pub,nightlife,POINT (672375.1697196659 5701751.607700294),2564,2627,Netherlands,Eindhoven,293437.7853,98,"Eindhoven, Netherlands",672375.1697196659,5701751.607700294,42632183,1
22.0,N662613234,51.4407081,5.4803609,"Da Verdi,",cafe,food_choices,POINT (672379.9918511187 5701753.630024121),2564,2627,Netherlands,Eindhoven,293437.7853,98,"Eindhoven, Netherlands",672379.9918511187,5701753.630024121,42632183,1
22.0,N662613234,51.4407081,5.4803609,"Da Verdi,",restaurant,food_choices,POINT (672379.9918511187 5701753.630024121),2564,2627,Netherlands,Eindhoven,293437.7853,98,"Eindhoven, Netherlands",672379.9918511187,5701753.630024121,42632183,1
25.0,N662613235,51.4409831,5.481,"The Trafalgar Pub,",pub,nightlife,POINT (672423.3658159206 5701785.711485904),2564,2627,Netherlands,Eindhoven,293437.7853,98,"Eindhoven, Netherlands",672423.3658159206,5701785.711485904,42633221,1
22.0,N662613237,51.4413735,5.4801772,"De Vrienden,",cafe,food_choices,POINT (672364.7209422708 5701827.182835009),2564,2627,Netherlands,Eindhoven,293437.7853,98,"Eindhoven, Netherlands",672364.7209422708,5701827.182835009,11758082106,1
22.0,N662613237,51.4413735,5.4801772,"De Vrienden,",restaurant,food_choices,POINT (672364.7209422708 5701827.182835009),2564,2627,Netherlands,Eindhoven,293437.7853,98,"Eindhoven, Netherlands",672364.7209422708,5701827.182835009,11758082106,1
22.0,N662613339,51.4415867,5.4832344,"Effenaar,",cafe,food_choices,POINT (672576.3534813805 5701858.088114489),2564,2627,Netherlands,Eindhoven,293437.7853,98,"Eindhoven, Netherlands",672576.3534813805,5701858.088114489,42633896,1
22.0,N662613339,51.4415867,5.4832344,"Effenaar,",restaurant,food_choices,POINT (672576.3534813805 5701858.088114489),2564,2627,Netherlands,Eindhoven,293437.7853,98,"Eindhoven, Netherlands",672576.3534813805,5701858.088114489,42633896,1
8.0,N726511719,51.460717,5.470488,"Kraamzorg Homecare,",doctors,health_wellbeing,POINT (671618.8708649435 5703955.21468065),2564,2627,Netherlands,Eindhoven,293437.7853,98,"Eindhoven, Netherlands",671618.8708649435,5703955.21468065,42687800,3
23.0,N726521708,51.46683,5.468614,"Snackbar Happy Eater,",fast_food,food_choices,POINT (671465.78498807 5704630.525696556),2564,2627,Netherlands,Eindhoven,293437.7853,98,"Eindhoven, Netherlands",671465.78498807,5704630.525696556,309677608,3
22.0,N876479786,51.4474029,5.4755783,"Sri Ganesh,",cafe,food_choices,POINT (672022.49000403 5702486.772994654),2564,2627,Netherlands,Eindhoven,293437.7853,98,"Eindhoven, Netherlands",672022.49000403,5702486.772994654,42651370,31
22.0,N876479786,51.4474029,5.4755783,"Sri Ganesh,",restaurant,food_choices,POINT (672022.49000403 5702486.772994654),2564,2627,Netherlands,Eindhoven,293437.7853,98,"Eindhoven, Netherlands",672022.49000403,5702486.772994654,42651370,31
22.0,N876479788,51.4461005,5.4753838,"Surabaya,",cafe,food_choices,POINT (672013.8722712826 5702341.503287823),2564,2627,Netherlands,Eindhoven,293437.7853,98,"Eindhoven, Netherlands",672013.8722712826,5702341.503287823,42647690,31
22.0,N876479788,51.4461005,5.4753838,"Surabaya,",restaurant,food_choices,POINT (672013.8722712826 5702341.503287823),2564,2627,Netherlands,Eindhoven,293437.7853,98,"Eindhoven, Netherlands",672013.8722712826,5702341.503287823,42647690,31
22.0,N876479790,51.4459928,5.475343,"Gaziantep ALTINŞİŞ Grill,",cafe,food_choices,POINT (672011.442318874 5702329.432375372),2564,2627,Netherlands,Eindhoven,293437.7853,98,"Eindhoven, Netherlands",672011.442318874,5702329.432375372,42646175,31
22.0,N876479790,51.4459928,5.475343,"Gaziantep ALTINŞİŞ Grill,",restaurant,food_choices,POINT (672011.442318874 5702329.432375372),2564,2627,Netherlands,Eindhoven,293437.7853,98,"Eindhoven, Netherlands",672011.442318874,5702329.432375372,42646175,31
22.0,N876479798,51.4473563,5.4752259,"Zizo,",cafe,food_choices,POINT (671998.1810584385 5702480.763814893),2564,2627,Netherlands,Eindhoven,293437.7853,98,"Eindhoven, Netherlands",671998.1810584385,5702480.763814893,7418664291,31
22.0,N876479798,51.4473563,5.4752259,"Zizo,",restaurant,food_choices,POINT (671998.1810584385 5702480.763814893),2564,2627,Netherlands,Eindhoven,293437.7853,98,"Eindhoven, Netherlands",671998.1810584385,5702480.763814893,7418664291,31
23.0,N876479800,51.447274,5.4755832,"French tacos,",fast_food,food_choices,POINT (672023.3150301152 5702472.45221549),2564,2627,Netherlands,Eindhoven,293437.7853,98,"Eindhoven, Netherlands",672023.3150301152,5702472.45221549,42651370,31
22.0,N945325367,51.4648897,5.5043929,"Eckart,",cafe,food_choices,POINT (673957.9574413856 5704499.191934142),2564,2627,Netherlands,Eindhoven,293437.7853,98,"Eindhoven, Netherlands",673957.9574413856,5704499.191934142,4973863105,23
22.0,N945325367,51.4648897,5.5043929,"Eckart,",restaurant,food_choices,POINT (673957.9574413856 5704499.191934142),2564,2627,Netherlands,Eindhoven,293437.7853,98,"Eindhoven, Netherlands",673957.9574413856,5704499.191934142,4973863105,23
23.0,N945471491,51.4361183,5.4767509,"Ali Baba Eindhoven,",fast_food,food_choices,POINT (672146.3998069209 5701234.803611081),2564,2627,Netherlands,Eindhoven,293437.7853,98,"Eindhoven, Netherlands",672146.3998069209,5701234.803611081,42620833,1
29.0,N674691937,51.4373639,5.4755335,"L'Avenue Vin & Cuisine,",bar,nightlife,POINT (672057.1143328499 5701370.439995845),2564,2627,Netherlands,Eindhoven,293437.7853,98,"Eindhoven, Netherlands",672057.1143328499,5701370.439995845,42623318,1
26.0,N674694560,51.4382162,5.4759234,"Bastani,",ice_cream,food_choices,POINT (672081.0056948394 5701466.12247232),2564,2627,Netherlands,Eindhoven,293437.7853,98,"Eindhoven, Netherlands",672081.0056948394,5701466.12247232,522133630,1
84.0,N689033007,51.4830359,5.4495412,"Jumbo,",supermarket,food_choices,POINT (670080.8953802356 5706387.963784464),2564,2627,Netherlands,Eindhoven,293437.7853,98,"Eindhoven, Netherlands",670080.8953802356,5706387.963784464,5851220221,15
23.0,N692975604,51.4433638,5.4796855,"Smullers,",fast_food,food_choices,POINT (672323.0598822322 5702047.325283862),2564,2627,Netherlands,Eindhoven,293437.7853,98,"Eindhoven, Netherlands",672323.0598822322,5702047.325283862,1028077408,1
23.0,N703192285,51.4434114,5.4796719,"Burger King,",fast_food,food_choices,POINT (672321.9356643559 5702052.585882227),2564,2627,Netherlands,Eindhoven,293437.7853,98,"Eindhoven, Netherlands",672321.9356643559,5702052.585882227,1885044380,1
23.0,N703192852,51.4434599,5.4789906,"The Döner Company,",fast_food,food_choices,POINT (672274.4135147366 5702056.375635603),2564,2627,Netherlands,Eindhoven,293437.7853,98,"Eindhoven, Netherlands",672274.4135147366,5702056.375635603,8450626384,1
10.0,N703511277,51.4764613,5.4769975,"Apotheek Jansen,",pharmacy,health_wellbeing,POINT (672011.767203885 5705721.094270236),2564,2627,Netherlands,Eindhoven,293437.7853,98,"Eindhoven, Netherlands",672011.767203885,5705721.094270236,295092782,33
65.0,N1029949653,51.4429638,5.467376,"Eindhoven Stadion,",station,mobility,POINT (671469.2411871748 5701973.956387718),2564,2627,Netherlands,Eindhoven,293437.7853,98,"Eindhoven, Netherlands",671469.2411871748,5701973.956387718,9500785680,1
22.0,N1038467890,51.4404917,5.4397612,"Centro Español,",cafe,food_choices,POINT (669559.5803357833 5701634.7892605495),2564,2627,Netherlands,Eindhoven,293437.7853,98,"Eindhoven, Netherlands",669559.5803357833,5701634.7892605495,3614940831,8
22.0,N1038467890,51.4404917,5.4397612,"Centro Español,",restaurant,food_choices,POINT (669559.5803357833 5701634.7892605495),2564,2627,Netherlands,Eindhoven,293437.7853,98,"Eindhoven, Netherlands",669559.5803357833,5701634.7892605495,3614940831,8
63.0,N1064744757,51.4401644,5.4349641,"Eindhoven, Bredalaan",stop_position,mobility,POINT (669227.4442228663 5701587.301466227),2564,2627,Netherlands,Eindhoven,293437.7853,98,"Eindhoven, Netherlands",669227.4442228663,5701587.301466227,620485240,8
32.0,N1161565957,51.437034,5.4777406,"LAB-1,",cinema,nightlife,POINT (672211.7343648477 5701338.946060047),2564,2627,Netherlands,Eindhoven,293437.7853,98,"Eindhoven, Netherlands",672211.7343648477,5701338.946060047,42623344,1
3.0,N1251729087,51.4709359,5.4963157,"Kinderdagverblijf Billies,",kindergarten,education,POINT (673374.0583785914 5705152.30223994),2564,2627,Netherlands,Eindhoven,293437.7853,98,"Eindhoven, Netherlands",673374.0583785914,5705152.30223994,1250611337,23
18.0,N1280221802,51.4432268,5.460807,"Panta Rhei,",fountain,community_space,POINT (671011.8111539234 5701987.839120468),2564,2627,Netherlands,Eindhoven,293437.7853,98,"Eindhoven, Netherlands",671011.8111539234,5701987.839120468,1392044851,10
84.0,N1357162226,51.4682235,5.4740767,"Albert Heijn XL,",supermarket,food_choices,POINT (671839.9253534862 5704798.2767975945),2564,2627,Netherlands,Eindhoven,293437.7853,98,"Eindhoven, Netherlands",671839.9253534862,5704798.2767975945,11663176669,13
22.0,N1368793360,51.4347093,5.483806,"Dijk 9,",cafe,food_choices,POINT (672642.0095075102 5701094.744567715),2564,2627,Netherlands,Eindhoven,293437.7853,98,"Eindhoven, Netherlands",672642.0095075102,5701094.744567715,81339423,46
22.0,N1368793360,51.4347093,5.483806,"Dijk 9,",restaurant,food_choices,POINT (672642.0095075102 5701094.744567715),2564,2627,Netherlands,Eindhoven,293437.7853,98,"Eindhoven, Netherlands",672642.0095075102,5701094.744567715,81339423,46
63.0,N1445699012,51.422979,5.5103992,"Eindhoven, Meerbergsven",stop_position,mobility,POINT (674534.8702691281 5699853.4926973805),2564,2627,Netherlands,Eindhoven,293437.7853,98,"Eindhoven, Netherlands",674534.8702691281,5699853.4926973805,8563752200,28
84.0,N1468433482,51.4228964,5.461223,"Lidl,",supermarket,food_choices,POINT (671116.6873638043 5699728.288490889),2564,2627,Netherlands,Eindhoven,293437.7853,98,"Eindhoven, Netherlands",671116.6873638043,5699728.288490889,5864149180,25
63.0,N1476475870,51.4281522,5.4868996,"Eindhoven, Looiakkerstraat",stop_position,mobility,POINT (672881.7643127779 5700372.965392547),2564,2627,Netherlands,Eindhoven,293437.7853,98,"Eindhoven, Netherlands",672881.7643127779,5700372.965392547,11682007058,20
22.0,N1492756878,51.4694473,5.4771863,"La Place,",cafe,food_choices,POINT (672051.271156545 5704941.6542186355),2564,2627,Netherlands,Eindhoven,293437.7853,98,"Eindhoven, Netherlands",672051.271156545,5704941.6542186355,309682777,13
22.0,N1492756878,51.4694473,5.4771863,"La Place,",restaurant,food_choices,POINT (672051.271156545 5704941.6542186355),2564,2627,Netherlands,Eindhoven,293437.7853,98,"Eindhoven, Netherlands",672051.271156545,5704941.6542186355,309682777,13
1.0,N1492768696,51.4662192,5.4688982,"de Kinderkamer,",childcare,education,POINT (671487.81294942 5704563.276734058),2564,2627,Netherlands,Eindhoven,293437.7853,98,"Eindhoven, Netherlands",671487.81294942,5704563.276734058,42703520,3
84.0,N1563777146,51.4376931,5.5214094,"PLUS,",supermarket,food_choices,POINT (675243.915051715 5701515.816109017),2564,2627,Netherlands,Eindhoven,293437.7853,98,"Eindhoven, Netherlands",675243.915051715,5701515.816109017,4425893265,17
31.0,N1603477764,51.4417165,5.4831135,"Effenaar,",nightclub,nightlife,POINT (672567.4630999932 5701872.2355538765),2564,2627,Netherlands,Eindhoven,293437.7853,98,"Eindhoven, Netherlands",672567.4630999932,5701872.2355538765,42633895,1
23.0,N1664242182,51.469472,5.4750116,"A la minute,",fast_food,food_choices,POINT (671900.1570066197 5704939.291848106),2564,2627,Netherlands,Eindhoven,293437.7853,98,"Eindhoven, Netherlands",671900.1570066197,5704939.291848106,309682719,13
84.0,N1699841367,51.4399331,5.4647711,"Amazing Oriental,",supermarket,food_choices,POINT (671299.5824324102 5701630.879042468),2564,2627,Netherlands,Eindhoven,293437.7853,98,"Eindhoven, Netherlands",671299.5824324102,5701630.879042468,1886079798,1
84.0,N1699859262,51.4404321,5.4527155,"Lidl,",supermarket,food_choices,POINT (670459.9838114068 5701658.233942926),2564,2627,Netherlands,Eindhoven,293437.7853,98,"Eindhoven, Netherlands",670459.9838114068,5701658.233942926,2486701904,19
22.0,N1699874580,51.4412304,5.4533324,"The Ottoman,",cafe,food_choices,POINT (670499.8777521021 5701748.432565198),2564,2627,Netherlands,Eindhoven,293437.7853,98,"Eindhoven, Netherlands",670499.8777521021,5701748.432565198,6944202380,19
22.0,N1699874580,51.4412304,5.4533324,"The Ottoman,",restaurant,food_choices,POINT (670499.8777521021 5701748.432565198),2564,2627,Netherlands,Eindhoven,293437.7853,98,"Eindhoven, Netherlands",670499.8777521021,5701748.432565198,6944202380,19
25.0,N1699959069,51.4431779,5.4554414,"De Roskam,",pub,nightlife,POINT (670639.1662763059 5701969.886173631),2564,2627,Netherlands,Eindhoven,293437.7853,98,"Eindhoven, Netherlands",670639.1662763059,5701969.886173631,9567992865,10
23.0,N1699959075,51.441271,5.4536409,"Firenze,",fast_food,food_choices,POINT (670521.1634765719 5701753.665118699),2564,2627,Netherlands,Eindhoven,293437.7853,98,"Eindhoven, Netherlands",670521.1634765719,5701753.665118699,2019851372,19
22.0,N1699959087,51.4415268,5.4548238,"'t Pleintje,",cafe,food_choices,POINT (670602.4070217218 5701784.862293976),2564,2627,Netherlands,Eindhoven,293437.7853,98,"Eindhoven, Netherlands",670602.4070217218,5701784.862293976,42633759,19
22.0,N1699959087,51.4415268,5.4548238,"'t Pleintje,",restaurant,food_choices,POINT (670602.4070217218 5701784.862293976),2564,2627,Netherlands,Eindhoven,293437.7853,98,"Eindhoven, Netherlands",670602.4070217218,5701784.862293976,42633759,19
0.0,N1699991564,51.4390547,5.4415599,"Centrum voor pop- en jazzonderwijs,",school,education,POINT (669689.89768278 5701479.175520514),2564,2627,Netherlands,Eindhoven,293437.7853,98,"Eindhoven, Netherlands",669689.89768278,5701479.175520514,12101975413,8
22.0,N1699991565,51.4374797,5.4406104,"Cafe de Strijpse Ketel,",cafe,food_choices,POINT (669629.7522880088 5701301.852199325),2564,2627,Netherlands,Eindhoven,293437.7853,98,"Eindhoven, Netherlands",669629.7522880088,5701301.852199325,42623507,8
22.0,N1699991565,51.4374797,5.4406104,"Cafe de Strijpse Ketel,",restaurant,food_choices,POINT (669629.7522880088 5701301.852199325),2564,2627,Netherlands,Eindhoven,293437.7853,98,"Eindhoven, Netherlands",669629.7522880088,5701301.852199325,42623507,8
23.0,N1699991569,51.4374731,5.4403422,"Cafetaria de Smickelhoek,",fast_food,food_choices,POINT (669611.1385445271 5701300.497211571),2564,2627,Netherlands,Eindhoven,293437.7853,98,"Eindhoven, Netherlands",669611.1385445271,5701300.497211571,42623507,8
23.0,N1700048739,51.4260233,5.4944119,"'t Belske,",fast_food,food_choices,POINT (673411.9855502781 5700154.013487406),2564,2627,Netherlands,Eindhoven,293437.7853,98,"Eindhoven, Netherlands",673411.9855502781,5700154.013487406,42596497,20
23.0,N1700082322,51.4161325,5.4919585,"Snackbar Flora,",fast_food,food_choices,POINT (673278.8641589724 5699048.464988545),2564,2627,Netherlands,Eindhoven,293437.7853,98,"Eindhoven, Netherlands",673278.8641589724,5699048.464988545,42570007,12
22.0,N1707751502,51.4776028,5.4920912,"De Orchidee,",cafe,food_choices,POINT (673055.459733107 5705883.593729409),2564,2627,Netherlands,Eindhoven,293437.7853,98,"Eindhoven, Netherlands",673055.459733107,5705883.593729409,1250611310,4
22.0,N1707751502,51.4776028,5.4920912,"De Orchidee,",restaurant,food_choices,POINT (673055.459733107 5705883.593729409),2564,2627,Netherlands,Eindhoven,293437.7853,98,"Eindhoven, Netherlands",673055.459733107,5705883.593729409,1250611310,4
23.0,N1707755934,51.4401909,5.4792741,"Automatiek Marks,",fast_food,food_choices,POINT (672306.4190343342 5701693.5655455375),2564,2627,Netherlands,Eindhoven,293437.7853,98,"Eindhoven, Netherlands",672306.4190343342,5701693.5655455375,335792576,1
64.0,N1714171427,51.4211143,5.4424652,"Akerendam,",platform,mobility,POINT (669819.3336106745 5699486.48824889),2564,2627,Netherlands,Eindhoven,293437.7853,98,"Eindhoven, Netherlands",669819.3336106745,5699486.48824889,1132461899,16
64.0,N1714171428,51.4211792,5.4425944,"Akerendam,",platform,mobility,POINT (669828.0747598445 5699494.0039527435),2564,2627,Netherlands,Eindhoven,293437.7853,98,"Eindhoven, Netherlands",669828.0747598445,5699494.0039527435,1132461899,16
64.0,N1714171429,51.4401921,5.4349303,"Bredalaan,",platform,mobility,POINT (669224.9930601867 5701590.303325581),2564,2627,Netherlands,Eindhoven,293437.7853,98,"Eindhoven, Netherlands",669224.9930601867,5701590.303325581,620485240,8
64.0,N1714171430,51.4404885,5.4358348,"Bredalaan,",platform,mobility,POINT (669286.7501320876 5701625.350343653),2564,2627,Netherlands,Eindhoven,293437.7853,98,"Eindhoven, Netherlands",669286.7501320876,5701625.350343653,1064744687,8
64.0,N1714171435,51.4497565,5.4031622,"Cargo Forum,",platform,mobility,POINT (666982.5325245451 5702580.84892743),2564,2627,Netherlands,Eindhoven,293437.7853,98,"Eindhoven, Netherlands",666982.5325245451,5702580.84892743,353071575,21
64.0,N1714171436,51.4498336,5.4028996,"Cargo Forum,",platform,mobility,POINT (666964.0069369128 5702588.822953083),2564,2627,Netherlands,Eindhoven,293437.7853,98,"Eindhoven, Netherlands",666964.0069369128,5702588.822953083,353071575,21
64.0,N1714171458,51.4196444,5.4463336,"Gagelbosch,",platform,mobility,POINT (670093.7173733283 5699332.025611425),2564,2627,Netherlands,Eindhoven,293437.7853,98,"Eindhoven, Netherlands",670093.7173733283,5699332.025611425,3028057324,16
64.0,N1714171466,51.4452594,5.4621389,"Glaspoort,",platform,mobility,POINT (671096.7583613098 5702216.953750732),2564,2627,Netherlands,Eindhoven,293437.7853,98,"Eindhoven, Netherlands",671096.7583613098,5702216.953750732,1969225436,10
64.0,N1714171468,51.4238328,5.4537457,"Grieglaan,",platform,mobility,POINT (670593.4102124819 5699814.966305516),2564,2627,Netherlands,Eindhoven,293437.7853,98,"Eindhoven, Netherlands",670593.4102124819,5699814.966305516,11508504644,25
64.0,N1714171485,51.4229975,5.5104243,"Meerbergsven,",platform,mobility,POINT (674536.5445885475 5699855.609482993),2564,2627,Netherlands,Eindhoven,293437.7853,98,"Eindhoven, Netherlands",674536.5445885475,5699855.609482993,8563752200,28
64.0,N1714171516,51.4437291,5.4788349,"Centraal Station,",platform,mobility,POINT (672262.5815369317 5702085.941481477),2564,2627,Netherlands,Eindhoven,293437.7853,98,"Eindhoven, Netherlands",672262.5815369317,5702085.941481477,7574839327,1
64.0,N1714171556,51.4383913,5.475297,"Vrijstraat,",platform,mobility,POINT (672036.8177188358 5701484.120080576),2564,2627,Netherlands,Eindhoven,293437.7853,98,"Eindhoven, Netherlands",672036.8177188358,5701484.120080576,619930395,1
84.0,N1719079363,51.4332441,5.4897595,"Jumbo,",supermarket,food_choices,POINT (673061.3006078256 5700945.880929442),2564,2627,Netherlands,Eindhoven,293437.7853,98,"Eindhoven, Netherlands",673061.3006078256,5700945.880929442,2916513801,0
64.0,N1732728583,51.43961,5.4145055,"Grasrijk,",platform,mobility,POINT (667807.8136095046 5701478.583539891),2564,2627,Netherlands,Eindhoven,293437.7853,98,"Eindhoven, Netherlands",667807.8136095046,5701478.583539891,1969225556,21
64.0,N1732728847,51.4436029,5.4114104,"Meerrijk,",platform,mobility,POINT (667578.1126469187 5701915.468265105),2564,2627,Netherlands,Eindhoven,293437.7853,98,"Eindhoven, Netherlands",667578.1126469187,5701915.468265105,5210395238,21
64.0,N1732728858,51.4438422,5.4113708,"Meerrijk,",platform,mobility,POINT (667574.4848334582 5701941.985501307),2564,2627,Netherlands,Eindhoven,293437.7853,98,"Eindhoven, Netherlands",667574.4848334582,5701941.985501307,5210395236,21
64.0,N1732729034,51.4466594,5.4073288,"Zandrijk,",platform,mobility,POINT (667283.3307527341 5702245.990130408),2564,2627,Netherlands,Eindhoven,293437.7853,98,"Eindhoven, Netherlands",667283.3307527341,5702245.990130408,42647581,21
64.0,N1732729037,51.4470962,5.4069034,"Zandrijk,",platform,mobility,POINT (667252.1774329839 5702293.586476846),2564,2627,Netherlands,Eindhoven,293437.7853,98,"Eindhoven, Netherlands",667252.1774329839,5702293.586476846,1969225631,21
64.0,N1732760057,51.4277016,5.5089545,"Jan van Eyckgracht,",platform,mobility,POINT (674416.4541396864 5700375.149117995),2564,2627,Netherlands,Eindhoven,293437.7853,98,"Eindhoven, Netherlands",674416.4541396864,5700375.149117995,11766771587,9
64.0,N1732760073,51.4309013,5.5045382,"Otto Veniusweg,",platform,mobility,POINT (674097.3205128503 5700720.411932618),2564,2627,Netherlands,Eindhoven,293437.7853,98,"Eindhoven, Netherlands",674097.3205128503,5700720.411932618,42608945,9
63.0,N1732760079,51.4185615,5.4962294,"Eindhoven, Pioenroosstraat",stop_position,mobility,POINT (673566.5966229993 5699328.651882919),2564,2627,Netherlands,Eindhoven,293437.7853,98,"Eindhoven, Netherlands",673566.5966229993,5699328.651882919,5229033741,12
64.0,N1732802677,51.43562,5.4753646,"Grote Berg,",platform,mobility,POINT (672051.9312837399 5701176.140638416),2564,2627,Netherlands,Eindhoven,293437.7853,98,"Eindhoven, Netherlands",672051.9312837399,5701176.140638416,42620070,1
64.0,N1732802682,51.4146593,5.461224,"HTC/Berkenbos,",platform,mobility,POINT (671147.5310830779 5698812.415605912),2564,2627,Netherlands,Eindhoven,293437.7853,98,"Eindhoven, Netherlands",671147.5310830779,5698812.415605912,42572683,25
64.0,N1732802716,51.4180879,5.4392662,"Kastelenplein,",platform,mobility,POINT (669608.1498259788 5699142.573636874),2564,2627,Netherlands,Eindhoven,293437.7853,98,"Eindhoven, Netherlands",669608.1498259788,5699142.573636874,420826012,16
64.0,N1732802748,51.4196661,5.4404013,"Kastelenplein,",platform,mobility,POINT (669681.2192117597 5699320.681322131),2564,2627,Netherlands,Eindhoven,293437.7853,98,"Eindhoven, Netherlands",669681.2192117597,5699320.681322131,10219529495,16
64.0,N1732833033,51.4452226,5.4509083,"Cederlaan,",platform,mobility,POINT (670316.5747306455 5702186.683010563),2564,2627,Netherlands,Eindhoven,293437.7853,98,"Eindhoven, Netherlands",670316.5747306455,5702186.683010563,42645016,10
64.0,N1732833034,51.4452642,5.4506201,"Cederlaan,",platform,mobility,POINT (670296.3952774175 5702190.638270713),2564,2627,Netherlands,Eindhoven,293437.7853,98,"Eindhoven, Netherlands",670296.3952774175,5702190.638270713,42644583,10
64.0,N1732833079,51.4395239,5.5163585,"Molijnstraat,",platform,mobility,POINT (674885.9205556012 5701707.305957473),2564,2627,Netherlands,Eindhoven,293437.7853,98,"Eindhoven, Netherlands",674885.9205556012,5701707.305957473,42628923,17
64.0,N1732833095,51.4906368,5.4478003,"Rijssellaan,",platform,mobility,POINT (669931.7652607987 5707229.066598578),2564,2627,Netherlands,Eindhoven,293437.7853,98,"Eindhoven, Netherlands",669931.7652607987,5707229.066598578,42776798,15
64.0,N1732833099,51.4910998,5.4474489,"Rijssellaan,",platform,mobility,POINT (669905.6517711226 5707279.7319006035),2564,2627,Netherlands,Eindhoven,293437.7853,98,"Eindhoven, Netherlands",669905.6517711226,5707279.7319006035,33531010,15
64.0,N1732853031,51.4697692,5.4918488,"Andromedaplaats,",platform,mobility,POINT (673068.283443911 5705012.008039835),2564,2627,Netherlands,Eindhoven,293437.7853,98,"Eindhoven, Netherlands",673068.283443911,5705012.008039835,3032259154,23
64.0,N1732853045,51.4702298,5.4913601,"Andromedaplaats,",platform,mobility,POINT (673032.60300454 5705062.066582759),2564,2627,Netherlands,Eindhoven,293437.7853,98,"Eindhoven, Netherlands",673032.60300454,5705062.066582759,7125100114,23
64.0,N1732853077,51.4685252,5.4904881,"Plutostraat,",platform,mobility,POINT (672978.4972929776 5704870.47259919),2564,2627,Netherlands,Eindhoven,293437.7853,98,"Eindhoven, Netherlands",672978.4972929776,5704870.47259919,7125100183,23
64.0,N1732853078,51.4663924,5.4902732,"Sterrenlaan,",platform,mobility,POINT (672971.6412584289 5704632.820410127),2564,2627,Netherlands,Eindhoven,293437.7853,98,"Eindhoven, Netherlands",672971.6412584289,5704632.820410127,12032189059,23
64.0,N1732853083,51.4667398,5.4904545,"Sterrenlaan,",platform,mobility,POINT (672982.9181728484 5704671.875921478),2564,2627,Netherlands,Eindhoven,293437.7853,98,"Eindhoven, Netherlands",672982.9181728484,5704671.875921478,9082661850,23
64.0,N1732853089,51.4770409,5.4962817,"Tarwelaan,",platform,mobility,POINT (673348.5456607467 5705831.032013373),2564,2627,Netherlands,Eindhoven,293437.7853,98,"Eindhoven, Netherlands",673348.5456607467,5705831.032013373,6725171179,4
64.0,N1732853107,51.4761023,5.4932692,"Winkelcentrum Vaartbroek,",platform,mobility,POINT (673142.9343234057 5705719.539820542),2564,2627,Netherlands,Eindhoven,293437.7853,98,"Eindhoven, Netherlands",673142.9343234057,5705719.539820542,6294577939,4
64.0,N1732853122,51.4761841,5.4929791,"Winkelcentrum Vaartbroek,",platform,mobility,POINT (673122.481618499 5705727.948958849),2564,2627,Netherlands,Eindhoven,293437.7853,98,"Eindhoven, Netherlands",673122.481618499,5705727.948958849,6294577939,4
64.0,N1732944263,51.4824112,5.4546083,"Autowijk,",platform,mobility,POINT (670435.0048344957 5706330.289933217),2564,2627,Netherlands,Eindhoven,293437.7853,98,"Eindhoven, Netherlands",670435.0048344957,5706330.289933217,42750698,15
64.0,N1732944312,51.4560092,5.4712186,"Kloosterdreef,",platform,mobility,POINT (671687.2867482593 5703433.469694362),2564,2627,Netherlands,Eindhoven,293437.7853,98,"Eindhoven, Netherlands",671687.2867482593,5703433.469694362,8663204729,18
64.0,N1732944332,51.4867495,5.4527697,"Roubaixlaan,",platform,mobility,POINT (670291.1923398145 5706808.386837425),2564,2627,Netherlands,Eindhoven,293437.7853,98,"Eindhoven, Netherlands",670291.1923398145,5706808.386837425,5504186070,15
64.0,N1732944334,51.487438,5.4527555,"Roubaixlaan,",platform,mobility,POINT (670287.6407229812 5706884.908292093),2564,2627,Netherlands,Eindhoven,293437.7853,98,"Eindhoven, Netherlands",670287.6407229812,5706884.908292093,32582116,15
64.0,N1732944335,51.4536523,5.4708647,"Sint Petruskerk,",platform,mobility,POINT (671671.5475278569 5703170.577589499),2564,2627,Netherlands,Eindhoven,293437.7853,98,"Eindhoven, Netherlands",671671.5475278569,5703170.577589499,7380718834,18
84.0,N1739747080,51.469994,5.493792,"Albert Heijn,",supermarket,food_choices,POINT (673202.3753617665 5705041.599137069),2564,2627,Netherlands,Eindhoven,293437.7853,98,"Eindhoven, Netherlands",673202.3753617665,5705041.599137069,7125100222,23
25.0,N1751395439,51.4374777,5.4752309,"Grand Cafe Berlage,",pub,nightlife,POINT (672035.6579258504 5701382.382475143),2564,2627,Netherlands,Eindhoven,293437.7853,98,"Eindhoven, Netherlands",672035.6579258504,5701382.382475143,42624126,1
25.0,N1770222924,51.4521252,5.4585494,"Şafak,",pub,nightlife,POINT (670821.7203073435 5702971.978698072),2564,2627,Netherlands,Eindhoven,293437.7853,98,"Eindhoven, Netherlands",670821.7203073435,5702971.978698072,10143312165,10
63.0,N1785095356,51.4906667,5.4478581,"Eindhoven, Rijssellaan",stop_position,mobility,POINT (669935.666105617 5707232.525399823),2564,2627,Netherlands,Eindhoven,293437.7853,98,"Eindhoven, Netherlands",669935.666105617,5707232.525399823,42776798,15
3.0,N1833040738,51.4717489,5.4845374,"Korein Kinderplein,",kindergarten,education,POINT (672553.0786009876 5705214.870030952),2564,2627,Netherlands,Eindhoven,293437.7853,98,"Eindhoven, Netherlands",672553.0786009876,5705214.870030952,42716848,13
3.0,N1833040756,51.4707989,5.4788006,"Kruimel Eindhoven,",kindergarten,education,POINT (672158.2862186377 5705095.733136067),2564,2627,Netherlands,Eindhoven,293437.7853,98,"Eindhoven, Netherlands",672158.2862186377,5705095.733136067,6831227064,13
63.0,N1853004683,51.4198226,5.4489306,"Eindhoven, Palestrinastraat",stop_position,mobility,POINT (670273.6001144092 5699357.8725464195),2564,2627,Netherlands,Eindhoven,293437.7853,98,"Eindhoven, Netherlands",670273.6001144092,5699357.8725464195,42580325,16
84.0,N1862022445,51.4603047,5.4709368,"PLUS,",supermarket,food_choices,POINT (671651.5909735978 5703910.423335364),2564,2627,Netherlands,Eindhoven,293437.7853,98,"Eindhoven, Netherlands",671651.5909735978,5703910.423335364,42687800,3
64.0,N1885044386,51.4436321,5.4779741,"Centraal Station,",platform,mobility,POINT (672203.134944938 5702073.131667099),2564,2627,Netherlands,Eindhoven,293437.7853,98,"Eindhoven, Netherlands",672203.134944938,5702073.131667099,7574820732,1
22.0,N1886063247,51.4397019,5.4780363,"Carrousel,",cafe,food_choices,POINT (672222.2454005042 5701636.282604574),2564,2627,Netherlands,Eindhoven,293437.7853,98,"Eindhoven, Netherlands",672222.2454005042,5701636.282604574,42629621,1
22.0,N1886063247,51.4397019,5.4780363,"Carrousel,",restaurant,food_choices,POINT (672222.2454005042 5701636.282604574),2564,2627,Netherlands,Eindhoven,293437.7853,98,"Eindhoven, Netherlands",672222.2454005042,5701636.282604574,42629621,1
22.0,N1886063276,51.4417842,5.4761354,"Ekmekci,",cafe,food_choices,POINT (672082.3229743368 5701863.343281212),2564,2627,Netherlands,Eindhoven,293437.7853,98,"Eindhoven, Netherlands",672082.3229743368,5701863.343281212,1886063299,1
22.0,N1886063276,51.4417842,5.4761354,"Ekmekci,",restaurant,food_choices,POINT (672082.3229743368 5701863.343281212),2564,2627,Netherlands,Eindhoven,293437.7853,98,"Eindhoven, Netherlands",672082.3229743368,5701863.343281212,1886063299,1
22.0,N1886063310,51.4398182,5.4786913,"Food City New oriental,",cafe,food_choices,POINT (672267.3235273969 5701650.754374007),2564,2627,Netherlands,Eindhoven,293437.7853,98,"Eindhoven, Netherlands",672267.3235273969,5701650.754374007,42629621,1
22.0,N1886063310,51.4398182,5.4786913,"Food City New oriental,",restaurant,food_choices,POINT (672267.3235273969 5701650.754374007),2564,2627,Netherlands,Eindhoven,293437.7853,98,"Eindhoven, Netherlands",672267.3235273969,5701650.754374007,42629621,1
22.0,N1886063314,51.4394688,5.4788227,"Queen,",cafe,food_choices,POINT (672277.7695711323 5701612.214011806),2564,2627,Netherlands,Eindhoven,293437.7853,98,"Eindhoven, Netherlands",672277.7695711323,5701612.214011806,42629621,1
22.0,N1886063314,51.4394688,5.4788227,"Queen,",restaurant,food_choices,POINT (672277.7695711323 5701612.214011806),2564,2627,Netherlands,Eindhoven,293437.7853,98,"Eindhoven, Netherlands",672277.7695711323,5701612.214011806,42629621,1
22.0,N1886079699,51.436891,5.4750322,"Bommel,",cafe,food_choices,POINT (672024.0544333757 5701316.681131839),2564,2627,Netherlands,Eindhoven,293437.7853,98,"Eindhoven, Netherlands",672024.0544333757,5701316.681131839,9628818190,1
22.0,N1886079699,51.436891,5.4750322,"Bommel,",restaurant,food_choices,POINT (672024.0544333757 5701316.681131839),2564,2627,Netherlands,Eindhoven,293437.7853,98,"Eindhoven, Netherlands",672024.0544333757,5701316.681131839,9628818190,1
25.0,N1886079737,51.4379157,5.4718956,"Proeflokaal de Gaper,",pub,nightlife,POINT (671802.233077485 5701423.254144061),2564,2627,Netherlands,Eindhoven,293437.7853,98,"Eindhoven, Netherlands",671802.233077485,5701423.254144061,42625067,1
22.0,N1886079757,51.4367325,5.4748911,"Lucie Cocina Bar en Restaurant,",cafe,food_choices,POINT (672014.8444143883 5701298.726262853),2564,2627,Netherlands,Eindhoven,293437.7853,98,"Eindhoven, Netherlands",672014.8444143883,5701298.726262853,42621996,1
22.0,N1886079757,51.4367325,5.4748911,"Lucie Cocina Bar en Restaurant,",restaurant,food_choices,POINT (672014.8444143883 5701298.726262853),2564,2627,Netherlands,Eindhoven,293437.7853,98,"Eindhoven, Netherlands",672014.8444143883,5701298.726262853,42621996,1
51.0,N1886079791,51.4396392,5.4661155,"Cubadanza,",dance,nightlife,POINT (671394.1048360378 5701601.34588493),2564,2627,Netherlands,Eindhoven,293437.7853,98,"Eindhoven, Netherlands",671394.1048360378,5701601.34588493,11472717958,1
22.0,N1886079811,51.4392196,5.4789418,"De Wildeman,",cafe,food_choices,POINT (672286.9838546561 5701584.785874758),2564,2627,Netherlands,Eindhoven,293437.7853,98,"Eindhoven, Netherlands",672286.9838546561,5701584.785874758,42627523,1
22.0,N1886079811,51.4392196,5.4789418,"De Wildeman,",restaurant,food_choices,POINT (672286.9838546561 5701584.785874758),2564,2627,Netherlands,Eindhoven,293437.7853,98,"Eindhoven, Netherlands",672286.9838546561,5701584.785874758,42627523,1
22.0,N1886079826,51.4391568,5.4789991,"De Vooruitgang,",cafe,food_choices,POINT (672291.2020515607 5701577.938000559),2564,2627,Netherlands,Eindhoven,293437.7853,98,"Eindhoven, Netherlands",672291.2020515607,5701577.938000559,42627523,1
22.0,N1886079826,51.4391568,5.4789991,"De Vooruitgang,",restaurant,food_choices,POINT (672291.2020515607 5701577.938000559),2564,2627,Netherlands,Eindhoven,293437.7853,98,"Eindhoven, Netherlands",672291.2020515607,5701577.938000559,42627523,1
23.0,N1898876092,51.4484157,5.4751578,"Sang Lee Rotishop,",fast_food,food_choices,POINT (671989.4675655938 5702598.397737683),2564,2627,Netherlands,Eindhoven,293437.7853,98,"Eindhoven, Netherlands",671989.4675655938,5702598.397737683,42653257,31
22.0,N1898876101,51.4484618,5.4751197,"Verona,",cafe,food_choices,POINT (671986.6472285887 5702603.43407777),2564,2627,Netherlands,Eindhoven,293437.7853,98,"Eindhoven, Netherlands",671986.6472285887,5702603.43407777,42653257,31
22.0,N1898876101,51.4484618,5.4751197,"Verona,",restaurant,food_choices,POINT (671986.6472285887 5702603.43407777),2564,2627,Netherlands,Eindhoven,293437.7853,98,"Eindhoven, Netherlands",671986.6472285887,5702603.43407777,42653257,31
22.0,N1898876122,51.4484105,5.4747226,"Athene,",cafe,food_choices,POINT (671959.2508757731 5702596.797499533),2564,2627,Netherlands,Eindhoven,293437.7853,98,"Eindhoven, Netherlands",671959.2508757731,5702596.797499533,8650779828,31
22.0,N1898876122,51.4484105,5.4747226,"Athene,",restaurant,food_choices,POINT (671959.2508757731 5702596.797499533),2564,2627,Netherlands,Eindhoven,293437.7853,98,"Eindhoven, Netherlands",671959.2508757731,5702596.797499533,8650779828,31
23.0,N1898876135,51.4490038,5.4742082,"Al Manqal BBQ,",fast_food,food_choices,POINT (671921.2828487678 5702661.558267356),2564,2627,Netherlands,Eindhoven,293437.7853,98,"Eindhoven, Netherlands",671921.2828487678,5702661.558267356,8650779829,31
23.0,N1898876140,51.4499005,5.4736656,"Antep Kebap Salonu,",fast_food,food_choices,POINT (671880.2167890454 5702759.987940796),2564,2627,Netherlands,Eindhoven,293437.7853,98,"Eindhoven, Netherlands",671880.2167890454,5702759.987940796,42658336,18
23.0,N1898876284,51.4479258,5.4751023,"Hizmet,",fast_food,food_choices,POINT (671987.4529922624 5702543.79578071),2564,2627,Netherlands,Eindhoven,293437.7853,98,"Eindhoven, Netherlands",671987.4529922624,5702543.79578071,8650779825,31
22.0,N1898876329,51.448141,5.4749865,"Chaska,",cafe,food_choices,POINT (671978.5986821092 5702567.451739055),2564,2627,Netherlands,Eindhoven,293437.7853,98,"Eindhoven, Netherlands",671978.5986821092,5702567.451739055,8650779828,31
22.0,N1898876329,51.448141,5.4749865,"Chaska,",restaurant,food_choices,POINT (671978.5986821092 5702567.451739055),2564,2627,Netherlands,Eindhoven,293437.7853,98,"Eindhoven, Netherlands",671978.5986821092,5702567.451739055,8650779828,31
25.0,N1898876361,51.4482265,5.4749345,"De Valk,",pub,nightlife,POINT (671974.6645294987 5702576.836297348),2564,2627,Netherlands,Eindhoven,293437.7853,98,"Eindhoven, Netherlands",671974.6645294987,5702576.836297348,8650779828,31
23.0,N1898876372,51.4483722,5.4751989,"Bethlehem,",fast_food,food_choices,POINT (671992.4865649279 5702593.657537233),2564,2627,Netherlands,Eindhoven,293437.7853,98,"Eindhoven, Netherlands",671992.4865649279,5702593.657537233,42653257,31
23.0,N1909884845,51.4512081,5.4634703,"Avrasya,",fast_food,food_choices,POINT (671167.0119864924 5702881.497945158),2564,2627,Netherlands,Eindhoven,293437.7853,98,"Eindhoven, Netherlands",671167.0119864924,5702881.497945158,5229192323,10
22.0,N1911442344,51.4493824,5.4742579,"Cappuccino,",cafe,food_choices,POINT (671923.3132208296 5702703.77120926),2564,2627,Netherlands,Eindhoven,293437.7853,98,"Eindhoven, Netherlands",671923.3132208296,5702703.77120926,8657035181,31
22.0,N1911442344,51.4493824,5.4742579,"Cappuccino,",restaurant,food_choices,POINT (671923.3132208296 5702703.77120926),2564,2627,Netherlands,Eindhoven,293437.7853,98,"Eindhoven, Netherlands",671923.3132208296,5702703.77120926,8657035181,31
23.0,N1919738399,51.4627741,5.4632892,"Cafetaria Mario,",fast_food,food_choices,POINT (671111.159856929 5704167.093481165),2564,2627,Netherlands,Eindhoven,293437.7853,98,"Eindhoven, Netherlands",671111.159856929,5704167.093481165,2844060770,3
23.0,N1919738401,51.4626234,5.463486,"New York Pizza,",fast_food,food_choices,POINT (671125.3924786004 5704150.797163513),2564,2627,Netherlands,Eindhoven,293437.7853,98,"Eindhoven, Netherlands",671125.3924786004,5704150.797163513,2844060765,3
23.0,N1931472121,51.4366176,5.4802647,"Amon,",fast_food,food_choices,POINT (672388.7120160605 5701298.585024412),2564,2627,Netherlands,Eindhoven,293437.7853,98,"Eindhoven, Netherlands",672388.7120160605,5701298.585024412,42622476,1
23.0,N1931472196,51.4367483,5.4805526,"Restaria De Hoek,",fast_food,food_choices,POINT (672408.227219906 5701313.7951042205),2564,2627,Netherlands,Eindhoven,293437.7853,98,"Eindhoven, Netherlands",672408.227219906,5701313.7951042205,42622476,1
25.0,N1931472219,51.4370853,5.4802797,"Spijker,",pub,nightlife,POINT (672387.9930964265 5701350.623409053),2564,2627,Netherlands,Eindhoven,293437.7853,98,"Eindhoven, Netherlands",672387.9930964265,5701350.623409053,42622476,1
84.0,N1949670078,51.4225381,5.4608967,"Polo-Smak,",supermarket,food_choices,POINT (671095.3429533149 5699687.687275526),2564,2627,Netherlands,Eindhoven,293437.7853,98,"Eindhoven, Netherlands",671095.3429533149,5699687.687275526,42586941,25
64.0,N1969214041,51.4437054,5.4786805,"Centraal Station,",platform,mobility,POINT (672251.9424555933 5702082.943122736),2564,2627,Netherlands,Eindhoven,293437.7853,98,"Eindhoven, Netherlands",672251.9424555933,5702082.943122736,7574820753,1
64.0,N1969225488,51.4419223,5.4755262,"Piazza,",platform,mobility,POINT (672039.4725567844 5701877.2672214545),2564,2627,Netherlands,Eindhoven,293437.7853,98,"Eindhoven, Netherlands",672039.4725567844,5701877.2672214545,1886063299,1
64.0,N1969225525,51.4412349,5.4748861,"Piazza,",platform,mobility,POINT (671997.5775020723 5701799.332313056),2564,2627,Netherlands,Eindhoven,293437.7853,98,"Eindhoven, Netherlands",671997.5775020723,5701799.332313056,268775141,1
64.0,N1969225550,51.4434616,5.4429713,"Evoluon,",platform,mobility,POINT (669771.6302657418 5701972.448600432),2564,2627,Netherlands,Eindhoven,293437.7853,98,"Eindhoven, Netherlands",669771.6302657418,5701972.448600432,5228628180,8
64.0,N1969225552,51.4471927,5.4581713,"Strijp S,",platform,mobility,POINT (670813.8664234382 5702422.65414113),2564,2627,Netherlands,Eindhoven,293437.7853,98,"Eindhoven, Netherlands",670813.8664234382,5702422.65414113,1969225552,10
64.0,N1969225592,51.4436397,5.4432804,"Evoluon,",platform,mobility,POINT (669792.44717016 5701992.968097302),2564,2627,Netherlands,Eindhoven,293437.7853,98,"Eindhoven, Netherlands",669792.44717016,5701992.968097302,10717855400,8
64.0,N1969225604,51.4470462,5.457895,"Strijp S,",platform,mobility,POINT (670795.216268827 5702405.720421269),2564,2627,Netherlands,Eindhoven,293437.7853,98,"Eindhoven, Netherlands",670795.216268827,5702405.720421269,1969225604,10
70.0,N2019851347,51.4415636,5.4549393,"Bakkerij Bekkers,",bakery,food_choices,POINT (670610.2956302811 5701789.22313073),2564,2627,Netherlands,Eindhoven,293437.7853,98,"Eindhoven, Netherlands",670610.2956302811,5701789.22313073,42633759,19
22.0,N2329809551,51.4429459,5.4632802,"'t Koffiehuisje,",cafe,food_choices,POINT (671184.7113385714 5701962.384207567),2564,2627,Netherlands,Eindhoven,293437.7853,98,"Eindhoven, Netherlands",671184.7113385714,5701962.384207567,4598649848,1
22.0,N2329809551,51.4429459,5.4632802,"'t Koffiehuisje,",restaurant,food_choices,POINT (671184.7113385714 5701962.384207567),2564,2627,Netherlands,Eindhoven,293437.7853,98,"Eindhoven, Netherlands",671184.7113385714,5701962.384207567,4598649848,1
22.0,N2373740814,51.449193,5.5123472,"Wasvenboerderij,",cafe,food_choices,POINT (674570.2881024763 5702772.827204613),2564,2627,Netherlands,Eindhoven,293437.7853,98,"Eindhoven, Netherlands",674570.2881024763,5702772.827204613,235118402,49
22.0,N2373740814,51.449193,5.5123472,"Wasvenboerderij,",restaurant,food_choices,POINT (674570.2881024763 5702772.827204613),2564,2627,Netherlands,Eindhoven,293437.7853,98,"Eindhoven, Netherlands",674570.2881024763,5702772.827204613,235118402,49
64.0,N2427948122,51.4389841,5.5167494,"Molijnstraat,",platform,mobility,POINT (674915.1469122213 5701648.220037809),2564,2627,Netherlands,Eindhoven,293437.7853,98,"Eindhoven, Netherlands",674915.1469122213,5701648.220037809,12599493071,17
22.0,N2458397305,51.4585878,5.4581219,"Kantoorzicht,",cafe,food_choices,POINT (670767.8948436637 5703689.555826724),2564,2627,Netherlands,Eindhoven,293437.7853,98,"Eindhoven, Netherlands",670767.8948436637,5703689.555826724,42682528,3
22.0,N2458397305,51.4585878,5.4581219,"Kantoorzicht,",restaurant,food_choices,POINT (670767.8948436637 5703689.555826724),2564,2627,Netherlands,Eindhoven,293437.7853,98,"Eindhoven, Netherlands",670767.8948436637,5703689.555826724,42682528,3
35.0,N2580834529,51.4344322,5.4766388,"MADspace,",arts_centre,nightlife,POINT (672144.9496908342 5701047.064349772),2564,2627,Netherlands,Eindhoven,293437.7853,98,"Eindhoven, Netherlands",672144.9496908342,5701047.064349772,8926875525,1
22.0,N2610172137,51.4367701,5.4785327,"De Burger,",cafe,food_choices,POINT (672267.7736155977 5701311.466079928),2564,2627,Netherlands,Eindhoven,293437.7853,98,"Eindhoven, Netherlands",672267.7736155977,5701311.466079928,42622249,1
22.0,N2610172137,51.4367701,5.4785327,"De Burger,",restaurant,food_choices,POINT (672267.7736155977 5701311.466079928),2564,2627,Netherlands,Eindhoven,293437.7853,98,"Eindhoven, Netherlands",672267.7736155977,5701311.466079928,42622249,1
22.0,N2610172138,51.4391351,5.4734382,"Bibliotheekcafé,",cafe,food_choices,POINT (671904.8527573957 5701562.457875797),2564,2627,Netherlands,Eindhoven,293437.7853,98,"Eindhoven, Netherlands",671904.8527573957,5701562.457875797,42627534,1
22.0,N2610172138,51.4391351,5.4734382,"Bibliotheekcafé,",restaurant,food_choices,POINT (671904.8527573957 5701562.457875797),2564,2627,Netherlands,Eindhoven,293437.7853,98,"Eindhoven, Netherlands",671904.8527573957,5701562.457875797,42627534,1
47.0,N2610172144,51.4404019,5.4796428,"ING,",bank,community_space,POINT (672331.2452085469 5701717.8939503785),2564,2627,Netherlands,Eindhoven,293437.7853,98,"Eindhoven, Netherlands",672331.2452085469,5701717.8939503785,6124781812,1
22.0,N2610172148,51.4367992,5.4785851,"El Pastor,",cafe,food_choices,POINT (672271.3056022555 5701314.824930988),2564,2627,Netherlands,Eindhoven,293437.7853,98,"Eindhoven, Netherlands",672271.3056022555,5701314.824930988,42622249,1
22.0,N2610172148,51.4367992,5.4785851,"El Pastor,",restaurant,food_choices,POINT (672271.3056022555 5701314.824930988),2564,2627,Netherlands,Eindhoven,293437.7853,98,"Eindhoven, Netherlands",672271.3056022555,5701314.824930988,42622249,1
22.0,N2621685660,51.4418507,5.4660528,"Eetcafé De Verlenging,",cafe,food_choices,POINT (671381.4667568415 5701847.094267417),2564,2627,Netherlands,Eindhoven,293437.7853,98,"Eindhoven, Netherlands",671381.4667568415,5701847.094267417,9500785671,1
22.0,N2621685660,51.4418507,5.4660528,"Eetcafé De Verlenging,",restaurant,food_choices,POINT (671381.4667568415 5701847.094267417),2564,2627,Netherlands,Eindhoven,293437.7853,98,"Eindhoven, Netherlands",671381.4667568415,5701847.094267417,9500785671,1
10.0,N2623457689,51.4473553,5.5141737,"Service Apotheek Tongelre,",pharmacy,health_wellbeing,POINT (674704.2006721852 5702572.852021304),2564,2627,Netherlands,Eindhoven,293437.7853,98,"Eindhoven, Netherlands",674704.2006721852,5702572.852021304,42649640,49
22.0,N2092447938,51.4421317,5.4766202,"La Place,",cafe,food_choices,POINT (672114.7032947731 5701903.120757658),2564,2627,Netherlands,Eindhoven,293437.7853,98,"Eindhoven, Netherlands",672114.7032947731,5701903.120757658,1886063299,1
22.0,N2092447938,51.4421317,5.4766202,"La Place,",restaurant,food_choices,POINT (672114.7032947731 5701903.120757658),2564,2627,Netherlands,Eindhoven,293437.7853,98,"Eindhoven, Netherlands",672114.7032947731,5701903.120757658,1886063299,1
23.0,N2138849672,51.4693643,5.4755595,"Bufkes,",fast_food,food_choices,POINT (671938.6107224966 5704928.603422796),2564,2627,Netherlands,Eindhoven,293437.7853,98,"Eindhoven, Netherlands",671938.6107224966,5704928.603422796,309682719,13
84.0,N2143283632,51.4774387,5.4932972,"Lidl,",supermarket,food_choices,POINT (673139.8163887525 5705868.199481253),2564,2627,Netherlands,Eindhoven,293437.7853,98,"Eindhoven, Netherlands",673139.8163887525,5705868.199481253,1250611318,4
84.0,N2215806492,51.4405871,5.4531836,"Albert Heijn,",supermarket,food_choices,POINT (670491.934253564 5701676.557931481),2564,2627,Netherlands,Eindhoven,293437.7853,98,"Eindhoven, Netherlands",670491.934253564,5701676.557931481,2486701904,19
10.0,N2269144078,51.4247533,5.5016103,"Apotheek SGE Stratum,",pharmacy,health_wellbeing,POINT (673917.1723236168 5700029.870222373),2564,2627,Netherlands,Eindhoven,293437.7853,98,"Eindhoven, Netherlands",673917.1723236168,5700029.870222373,3885862563,9
84.0,N2308207053,51.4422253,5.4084553,"Jumbo,",supermarket,food_choices,POINT (667377.8164635003 5701755.534602632),2564,2627,Netherlands,Eindhoven,293437.7853,98,"Eindhoven, Netherlands",667377.8164635003,5701755.534602632,9764542817,21
84.0,N2308207054,51.4429946,5.4093935,"Albert Heijn,",supermarket,food_choices,POINT (667440.1944737185 5701843.2179701645),2564,2627,Netherlands,Eindhoven,293437.7853,98,"Eindhoven, Netherlands",667440.1944737185,5701843.2179701645,6712429506,21
70.0,N2308207055,51.4422155,5.4085738,"Bakkerij van Heeswijk,",bakery,food_choices,POINT (667386.0864916958 5701754.715768846),2564,2627,Netherlands,Eindhoven,293437.7853,98,"Eindhoven, Netherlands",667386.0864916958,5701754.715768846,8686712777,21
84.0,N2675025194,51.4278756,5.5096469,"Albert Heijn,",supermarket,food_choices,POINT (674463.9183216597 5700396.144823964),2564,2627,Netherlands,Eindhoven,293437.7853,98,"Eindhoven, Netherlands",674463.9183216597,5700396.144823964,42601603,9
84.0,N2677011002,51.4263467,5.4889096,"Albert Heijn,",supermarket,food_choices,POINT (673028.296130574 5700176.96021627),2564,2627,Netherlands,Eindhoven,293437.7853,98,"Eindhoven, Netherlands",673028.296130574,5700176.96021627,3579528823,20
25.0,N2677869886,51.4419028,5.4997387,"Knabbel,",pub,nightlife,POINT (673721.9849701683 5701932.256175833),2564,2627,Netherlands,Eindhoven,293437.7853,98,"Eindhoven, Netherlands",673721.9849701683,5701932.256175833,42635489,0
64.0,N2683688921,51.4608594,5.4700342,"Joris Minnestraat,",platform,mobility,POINT (671586.8165931958 5703969.984454624),2564,2627,Netherlands,Eindhoven,293437.7853,98,"Eindhoven, Netherlands",671586.8165931958,5703969.984454624,42688142,3
23.0,N2687487697,51.4422422,5.5086572,"De gulden,",fast_food,food_choices,POINT (674340.4046647354 5701991.187294608),2564,2627,Netherlands,Eindhoven,293437.7853,98,"Eindhoven, Netherlands",674340.4046647354,5701991.187294608,42635797,17
49.0,N2687487699,51.4428325,5.5100844,"Mandir Triloki Dhaam,",place_of_worship,community_space,POINT (674437.3245730699 5702060.220431509),2564,2627,Netherlands,Eindhoven,293437.7853,98,"Eindhoven, Netherlands",674437.3245730699,5702060.220431509,7102118383,17
49.0,N2688919513,51.4378056,5.4368101,"Hare Krishna ISKCON,",place_of_worship,community_space,POINT (669364.4496606771 5701329.294049407),2564,2627,Netherlands,Eindhoven,293437.7853,98,"Eindhoven, Netherlands",669364.4496606771,5701329.294049407,42626038,8
64.0,N2701071010,51.444155,5.4791744,"Centraal Station,",platform,mobility,POINT (672284.5678922907 5702134.095562579),2564,2627,Netherlands,Eindhoven,293437.7853,98,"Eindhoven, Netherlands",672284.5678922907,5702134.095562579,42641873,1
64.0,N2701085912,51.4437193,5.478766,"Centraal Station,",platform,mobility,POINT (672257.830996432 5702084.689760099),2564,2627,Netherlands,Eindhoven,293437.7853,98,"Eindhoven, Netherlands",672257.830996432,5702084.689760099,7574839346,1
64.0,N2701085915,51.4436949,5.4786051,"Centraal Station,",platform,mobility,POINT (672246.742900331 5702081.598290764),2564,2627,Netherlands,Eindhoven,293437.7853,98,"Eindhoven, Netherlands",672246.742900331,5702081.598290764,7574820758,1
64.0,N2701085917,51.4436825,5.4785257,"Centraal Station,",platform,mobility,POINT (672241.2725583873 5702080.032797006),2564,2627,Netherlands,Eindhoven,293437.7853,98,"Eindhoven, Netherlands",672241.2725583873,5702080.032797006,7574820763,1
64.0,N2701085918,51.4436699,5.4784493,"Centraal Station,",platform,mobility,POINT (672236.0114174986 5702078.45212705),2564,2627,Netherlands,Eindhoven,293437.7853,98,"Eindhoven, Netherlands",672236.0114174986,5702078.45212705,7574820768,1
64.0,N2701085920,51.4436515,5.4780465,"Centraal Station,",platform,mobility,POINT (672208.0925765004 5702075.458982645),2564,2627,Netherlands,Eindhoven,293437.7853,98,"Eindhoven, Netherlands",672208.0925765004,5702075.458982645,7574820738,1
64.0,N2701085923,51.4436336,5.4781285,"Centraal Station,",platform,mobility,POINT (672213.857609893 5702073.661524523),2564,2627,Netherlands,Eindhoven,293437.7853,98,"Eindhoven, Netherlands",672213.857609893,5702073.661524523,7574820743,1
64.0,N2701085926,51.4436593,5.4783659,"Centraal Station,",platform,mobility,POINT (672230.256359998 5702077.077378105),2564,2627,Netherlands,Eindhoven,293437.7853,98,"Eindhoven, Netherlands",672230.256359998,5702077.077378105,7574839309,1
64.0,N2701085929,51.4436474,5.478286,"Centraal Station,",platform,mobility,POINT (672224.7493854404 5702075.566320967),2564,2627,Netherlands,Eindhoven,293437.7853,98,"Eindhoven, Netherlands",672224.7493854404,5702075.566320967,7574839316,1
64.0,N2701085932,51.4436429,5.4782093,"Centraal Station,",platform,mobility,POINT (672219.4369088304 5702074.885594578),2564,2627,Netherlands,Eindhoven,293437.7853,98,"Eindhoven, Netherlands",672219.4369088304,5702074.885594578,7574820748,1
7.0,N2713851274,51.4361865,5.4514696,"Strijp Mondzorg,",dentist,health_wellbeing,POINT (670389.2106127491 5701183.268596473),2564,2627,Netherlands,Eindhoven,293437.7853,98,"Eindhoven, Netherlands",670389.2106127491,5701183.268596473,42620479,19
22.0,N2712402671,51.4188262,5.4392882,"Toko Senang,",cafe,food_choices,POINT (669606.945626488 5699224.715731699),2564,2627,Netherlands,Eindhoven,293437.7853,98,"Eindhoven, Netherlands",669606.945626488,5699224.715731699,10949026743,16
22.0,N2712402671,51.4188262,5.4392882,"Toko Senang,",restaurant,food_choices,POINT (669606.945626488 5699224.715731699),2564,2627,Netherlands,Eindhoven,293437.7853,98,"Eindhoven, Netherlands",669606.945626488,5699224.715731699,10949026743,16
84.0,N2712402704,51.4188413,5.4406607,"Namaste India,",supermarket,food_choices,POINT (669702.3086333143 5699229.573138841),2564,2627,Netherlands,Eindhoven,293437.7853,98,"Eindhoven, Netherlands",669702.3086333143,5699229.573138841,10949026751,16
23.0,N2712402707,51.4188952,5.4410082,"Brussels eethuis,",fast_food,food_choices,POINT (669726.2678001554 5699236.3712753095),2564,2627,Netherlands,Eindhoven,293437.7853,98,"Eindhoven, Netherlands",669726.2678001554,5699236.3712753095,10949026751,16
84.0,N2712402708,51.4190133,5.4409524,"Jumbo,",supermarket,food_choices,POINT (669721.9508875544 5699249.3734697765),2564,2627,Netherlands,Eindhoven,293437.7853,98,"Eindhoven, Netherlands",669721.9508875544,5699249.3734697765,10949026751,16
22.0,N2712402710,51.4193681,5.440952,"Golden Garden,",cafe,food_choices,POINT (669720.6084481475 5699288.8225485515),2564,2627,Netherlands,Eindhoven,293437.7853,98,"Eindhoven, Netherlands",669720.6084481475,5699288.8225485515,497945052,16
22.0,N2712402710,51.4193681,5.440952,"Golden Garden,",restaurant,food_choices,POINT (669720.6084481475 5699288.8225485515),2564,2627,Netherlands,Eindhoven,293437.7853,98,"Eindhoven, Netherlands",669720.6084481475,5699288.8225485515,497945052,16
8.0,N2712408473,51.4193525,5.4427234,"Huisartspraktijk Kastelenplein,",doctors,health_wellbeing,POINT (669843.8160728877 5699291.193334482),2564,2627,Netherlands,Eindhoven,293437.7853,98,"Eindhoven, Netherlands",669843.8160728877,5699291.193334482,1696156710,16
7.0,N2712408475,51.4195734,5.4426259,"Tandartsen Kastelenplein,",dentist,health_wellbeing,POINT (669836.2186989489 5699315.529030592),2564,2627,Netherlands,Eindhoven,293437.7853,98,"Eindhoven, Netherlands",669836.2186989489,5699315.529030592,1696156711,16
10.0,N2712408476,51.4195388,5.4423923,"Apotheek de Gender,",pharmacy,health_wellbeing,POINT (669820.1069097568 5699311.140345415),2564,2627,Netherlands,Eindhoven,293437.7853,98,"Eindhoven, Netherlands",669820.1069097568,5699311.140345415,497944913,16
1.0,N2713919920,51.4378346,5.4394109,"Korein Kinderplein,",childcare,education,POINT (669545.0801300146 5701338.53599435),2564,2627,Netherlands,Eindhoven,293437.7853,98,"Eindhoven, Netherlands",669545.0801300146,5701338.53599435,42625622,8
23.0,N2713920060,51.4385047,5.4427631,"Cafetaria Pejoco,",fast_food,food_choices,POINT (669775.5495211779 5701420.809622773),2564,2627,Netherlands,Eindhoven,293437.7853,98,"Eindhoven, Netherlands",669775.5495211779,5701420.809622773,1618329165,8
23.0,N2713920134,51.4385661,5.4424315,"Istanbul,",fast_food,food_choices,POINT (669752.2782458875 5701426.868041861),2564,2627,Netherlands,Eindhoven,293437.7853,98,"Eindhoven, Netherlands",669752.2782458875,5701426.868041861,1618329165,8
11.0,N2713920233,51.439105,5.4397871,"Theresia,",nursing_home,health_wellbeing,POINT (669566.517238692 5701480.662382445),2564,2627,Netherlands,Eindhoven,293437.7853,98,"Eindhoven, Netherlands",669566.517238692,5701480.662382445,2336174778,8
23.0,N2713937651,51.4399547,5.4353847,"Panda,",fast_food,food_choices,POINT (669257.4470137164 5701564.956901932),2564,2627,Netherlands,Eindhoven,293437.7853,98,"Eindhoven, Netherlands",669257.4470137164,5701564.956901932,42630813,8
6.0,N2714512462,51.4421157,5.4404506,"PoliDirect Eindhoven,",clinic,health_wellbeing,POINT (669601.4681133118 5701816.957781243),2564,2627,Netherlands,Eindhoven,293437.7853,98,"Eindhoven, Netherlands",669601.4681133118,5701816.957781243,5631096061,8
50.0,N2717041201,51.4238418,5.4505825,"Bounce Valley Eindhoven,",amusement_arcade,nightlife,POINT (670373.4892345035 5699808.60531075),2564,2627,Netherlands,Eindhoven,293437.7853,98,"Eindhoven, Netherlands",670373.4892345035,5699808.60531075,11790801344,25
1.0,N2717570401,51.4180146,5.4406045,"Korein Keverberg,",childcare,education,POINT (669701.4641780304 5699137.522668105),2564,2627,Netherlands,Eindhoven,293437.7853,98,"Eindhoven, Netherlands",669701.4641780304,5699137.522668105,11378511146,16
22.0,N2721156214,51.4238071,5.4623115,"Nieuwe Chinese Muur,",cafe,food_choices,POINT (671188.9509170717 5699832.091601954),2564,2627,Netherlands,Eindhoven,293437.7853,98,"Eindhoven, Netherlands",671188.9509170717,5699832.091601954,11817226093,25
22.0,N2721156214,51.4238071,5.4623115,"Nieuwe Chinese Muur,",restaurant,food_choices,POINT (671188.9509170717 5699832.091601954),2564,2627,Netherlands,Eindhoven,293437.7853,98,"Eindhoven, Netherlands",671188.9509170717,5699832.091601954,11817226093,25
70.0,N2721156217,51.4238167,5.4621421,"De Echte Bakker,",bakery,food_choices,POINT (671177.139333107 5699832.763154351),2564,2627,Netherlands,Eindhoven,293437.7853,98,"Eindhoven, Netherlands",671177.139333107,5699832.763154351,11817226088,25
